X,Y,OBJECTID,ID,NAME,ADDRESS,CITY,STATE,ZIP,ZIP4,TELEPHONE,TYPE,STATUS,POPULATION,COUNTY,COUNTYFIPS,COUNTRY,LATITUDE,LONGITUDE,NAICS_CODE,NAICS_DESC,SOURCE,SOURCEDATE,VAL_METHOD,VAL_DATE,WEBSITE,ST_SUBTYPE
-13635620.2733497,4542834.70400834,5918,1222329131,GRACE INFANT CARE CENTER,3201 ULLOA STREET,SAN FRANCISCO,CA,94116,NOT AVAILABLE,(415) 681-6606,CENTER BASED,OPEN,15,SAN FRANCISCO,06075,USA,37.740521,-122.490861,624410,CHILD DAY CARE CENTERS,https://data.chhs.ca.gov/dataset/bc819981-be52-4011-b3e5-b3fd09d4ea87/resource/cdf6928f-7cbe-49e8-b415-5422b357cfd3/download/ccl_locations_cc.csv,2022/05/17 00:00:00+00,IMAGERY/OTHER,2022/06/02 00:00:00+00,NOT AVAILABLE,INFANT CENTER
-13634191.9329633,4540064.72195825,5920,1222329132,ASSOCIATED STUDENTS CHILDREN'S CENTER - INFANT,1650 HOLLOWAY AVENUE,SAN FRANCISCO,CA,94132,NOT AVAILABLE,(415) 338-2403,CENTER BASED,OPEN,40,SAN FRANCISCO,06075,USA,37.720841,-122.47803,624410,CHILD DAY CARE CENTERS,https://data.chhs.ca.gov/dataset/bc819981-be52-4011-b3e5-b3fd09d4ea87/resource/cdf6928f-7cbe-49e8-b415-5422b357cfd3/download/ccl_locations_cc.csv,2022/05/17 00:00:00+00,IMAGERY/OTHER,2022/06/02 00:00:00+00,NOT AVAILABLE,INFANT CENTER
-13627999.2296905,4544145.21273721,5921,1222252776,KATHERINE MICHIELS SCHOOL,1335 GUERRERO STREET,SAN FRANCISCO,CA,94110,NOT AVAILABLE,(415) 821-0130,CENTER BASED,OPEN,15,SAN FRANCISCO,06075,USA,37.74983,-122.4224,624410,CHILD DAY CARE CENTERS,https://data.chhs.ca.gov/dataset/bc819981-be52-4011-b3e5-b3fd09d4ea87/resource/cdf6928f-7cbe-49e8-b415-5422b357cfd3/download/ccl_locations_cc.csv,2022/05/17 00:00:00+00,IMAGERY/OTHER,2020/05/20 00:00:00+00,NOT AVAILABLE,INFANT CENTER
-13626503.0957342,4544267.69861162,6024,1222329180,FAMILY DEVELOPMENTAL CENTER (INFANT),2730 BRYANT STREET,SAN FRANCISCO,CA,94110,NOT AVAILABLE,(415) 282-1090,CENTER BASED,OPEN,95,SAN FRANCISCO,06075,USA,37.7507,-122.40896,624410,CHILD DAY CARE CENTERS,https://data.chhs.ca.gov/dataset/bc819981-be52-4011-b3e5-b3fd09d4ea87/resource/cdf6928f-7cbe-49e8-b415-5422b357cfd3/download/ccl_locations_cc.csv,2022/05/17 00:00:00+00,GEOCODE,2022/06/02 00:00:00+00,NOT AVAILABLE,INFANT CENTER
-13630014.1124738,4543446.92997088,6045,1222271992,ST. NICHOLAS DAY CARE AND PRESCHOOL - INFANT,5200 DIAMOND HEIGHTS BLVD.,SAN FRANCISCO,CA,94131,NOT AVAILABLE,(415) 550-1536,CENTER BASED,OPEN,39,SAN FRANCISCO,06075,USA,37.74487,-122.4405,624410,CHILD DAY CARE CENTERS,https://data.chhs.ca.gov/dataset/bc819981-be52-4011-b3e5-b3fd09d4ea87/resource/cdf6928f-7cbe-49e8-b415-5422b357cfd3/download/ccl_locations_cc.csv,2022/05/17 00:00:00+00,IMAGERY/OTHER,2020/05/15 00:00:00+00,NOT AVAILABLE,INFANT CENTER
-13628077.153334,4547507.76172921,6155,1222315793,HELEN HAWK CHILDREN'S CTR - COMPASS FAM SRVS INFANT,111 PAGE STREET,SAN FRANCISCO,CA,94102,NOT AVAILABLE,(415) 863-0681,CENTER BASED,OPEN,8,SAN FRANCISCO,06075,USA,37.77371,-122.4231,624410,CHILD DAY CARE CENTERS,https://data.chhs.ca.gov/dataset/bc819981-be52-4011-b3e5-b3fd09d4ea87/resource/cdf6928f-7cbe-49e8-b415-5422b357cfd3/download/ccl_locations_cc.csv,2022/05/17 00:00:00+00,IMAGERY/OTHER,2020/03/24 00:00:00+00,NOT AVAILABLE,INFANT CENTER
-13625902.0818034,4550195.34295002,6186,1222329235,BRIGHT HORIZONS SAN FRANCISCO CALIFORNIA ST - INFANT,555 CALIFORNIA STREET,SAN FRANCISCO,CA,94104,NOT AVAILABLE,(415) 392-7531,CENTER BASED,OPEN,10,SAN FRANCISCO,06075,USA,37.792791,-122.403561,624410,CHILD DAY CARE CENTERS,https://data.chhs.ca.gov/dataset/bc819981-be52-4011-b3e5-b3fd09d4ea87/resource/cdf6928f-7cbe-49e8-b415-5422b357cfd3/download/ccl_locations_cc.csv,2022/05/17 00:00:00+00,IMAGERY/OTHER,2022/06/02 00:00:00+00,NOT AVAILABLE,INFANT CENTER
-13625607.8643892,4548713.36195233,6306,1222327315,YERBA BUENA GARDENS CHILD DEV CTR,790 FOLSOM STREET,SAN FRANCISCO,CA,94107,NOT AVAILABLE,(415) 820-3500,CENTER BASED,OPEN,24,SAN FRANCISCO,06075,USA,37.78227,-122.400918,624410,CHILD DAY CARE CENTERS,https://data.chhs.ca.gov/dataset/bc819981-be52-4011-b3e5-b3fd09d4ea87/resource/cdf6928f-7cbe-49e8-b415-5422b357cfd3/download/ccl_locations_cc.csv,2022/05/17 00:00:00+00,IMAGERY,2020/10/08 00:00:00+00,NOT AVAILABLE,INFANT CENTER
-13632310.7448884,4551039.04372439,6314,1222329289,SFUSD - PRESIDIO (EES) INFANT / TODDLER,387 MORAGA AVE,SAN FRANCISCO,CA,94129,NOT AVAILABLE,(415) 561-5822,CENTER BASED,OPEN,30,SAN FRANCISCO,06075,USA,37.79878,-122.461131,624410,CHILD DAY CARE CENTERS,https://data.chhs.ca.gov/dataset/bc819981-be52-4011-b3e5-b3fd09d4ea87/resource/cdf6928f-7cbe-49e8-b415-5422b357cfd3/download/ccl_locations_cc.csv,2022/05/17 00:00:00+00,IMAGERY/OTHER,2022/06/02 00:00:00+00,NOT AVAILABLE,INFANT CENTER
-13629257.1399364,4548595.04921055,6320,1222261400,MONTESSORI SCHOOL OF THE BAY AREA INC. - INFANT,1550 EDDY STREET,SAN FRANCISCO,CA,94115,NOT AVAILABLE,(415) 292-7970,CENTER BASED,OPEN,18,SAN FRANCISCO,06075,USA,37.78143,-122.4337,624410,CHILD DAY CARE CENTERS,https://data.chhs.ca.gov/dataset/bc819981-be52-4011-b3e5-b3fd09d4ea87/resource/cdf6928f-7cbe-49e8-b415-5422b357cfd3/download/ccl_locations_cc.csv,2022/05/17 00:00:00+00,IMAGERY/OTHER,2019/12/20 00:00:00+00,NOT AVAILABLE,INFANT CENTER
-13624062.5606139,4539658.29465161,6348,1222329302,FRANDELJA ENRICHMENT CENTER (INFANT),950 GILMAN STREET,SAN FRANCISCO,CA,94124,NOT AVAILABLE,(415) 822-1699,CENTER BASED,OPEN,40,SAN FRANCISCO,06075,USA,37.717953,-122.3870363,624410,CHILD DAY CARE CENTERS,https://data.chhs.ca.gov/dataset/bc819981-be52-4011-b3e5-b3fd09d4ea87/resource/cdf6928f-7cbe-49e8-b415-5422b357cfd3/download/ccl_locations_cc.csv,2022/05/17 00:00:00+00,IMAGERY/OTHER,2022/06/02 00:00:00+00,NOT AVAILABLE,INFANT CENTER
-13626711.6305363,4550798.02768172,6351,1222329304,WU YEE CHILDREN SERVICES - CHINATOWN INFANT CENTER,"831 BROADWAY STREET, 1ST FLOOR",SAN FRANCISCO,CA,94133,NOT AVAILABLE,(415) 321-3217,CENTER BASED,OPEN,28,SAN FRANCISCO,06075,USA,37.7970692,-122.4108333,624410,CHILD DAY CARE CENTERS,https://data.chhs.ca.gov/dataset/bc819981-be52-4011-b3e5-b3fd09d4ea87/resource/cdf6928f-7cbe-49e8-b415-5422b357cfd3/download/ccl_locations_cc.csv,2022/05/17 00:00:00+00,IMAGERY/OTHER,2022/06/02 00:00:00+00,NOT AVAILABLE,INFANT CENTER
-13627560.0742993,4538531.07655759,6403,1222329324,WU YEE CHILDREN'S SERVICES - SUNNYDALE CDC - INFANTS,700 VELASCO AVENUE,SAN FRANCISCO,CA,94134,NOT AVAILABLE,(415) 321-3844,CENTER BASED,OPEN,28,SAN FRANCISCO,06075,USA,37.7099426,-122.418455,624410,CHILD DAY CARE CENTERS,https://data.chhs.ca.gov/dataset/bc819981-be52-4011-b3e5-b3fd09d4ea87/resource/cdf6928f-7cbe-49e8-b415-5422b357cfd3/download/ccl_locations_cc.csv,2022/05/17 00:00:00+00,IMAGERY/OTHER,2022/06/02 00:00:00+00,NOT AVAILABLE,INFANT CENTER
-13627520.55588,4543879.12769637,6420,1222246075,"FAMILY SCHOOL CDC BERNAL GATEWAY, THE",3101 MISSION STREET,SAN FRANCISCO,CA,94110,NOT AVAILABLE,(415) 550-4178,CENTER BASED,OPEN,16,SAN FRANCISCO,06075,USA,37.74794,-122.4181,624410,CHILD DAY CARE CENTERS,https://data.chhs.ca.gov/dataset/bc819981-be52-4011-b3e5-b3fd09d4ea87/resource/cdf6928f-7cbe-49e8-b415-5422b357cfd3/download/ccl_locations_cc.csv,2022/05/17 00:00:00+00,IMAGERY/OTHER,2020/04/03 00:00:00+00,NOT AVAILABLE,INFANT CENTER
-13627059.6931882,4548730.40473188,6431,1222329331,COMPASS CHILDREN'S CENTER - INFANTS,144 LEAVENWORTH STREET,SAN FRANCISCO,CA,94102,NOT AVAILABLE,(415) 644-0504,CENTER BASED,OPEN,27,SAN FRANCISCO,06075,USA,37.782391,-122.41396,624410,CHILD DAY CARE CENTERS,https://data.chhs.ca.gov/dataset/bc819981-be52-4011-b3e5-b3fd09d4ea87/resource/cdf6928f-7cbe-49e8-b415-5422b357cfd3/download/ccl_locations_cc.csv,2022/05/17 00:00:00+00,IMAGERY/OTHER,2022/06/02 00:00:00+00,NOT AVAILABLE,INFANT CENTER
-13630787.7829348,4548479.69558187,6458,1222329341,EPIPHANY PARENT - CHILD CENTER,100 MASONIC AVENUE,SAN FRANCISCO,CA,94118,NOT AVAILABLE,(415) 567-8370,CENTER BASED,OPEN,39,SAN FRANCISCO,06075,USA,37.780611,-122.44745,624410,CHILD DAY CARE CENTERS,https://data.chhs.ca.gov/dataset/bc819981-be52-4011-b3e5-b3fd09d4ea87/resource/cdf6928f-7cbe-49e8-b415-5422b357cfd3/download/ccl_locations_cc.csv,2022/05/17 00:00:00+00,IMAGERY/OTHER,2022/06/02 00:00:00+00,NOT AVAILABLE,INFANT CENTER
-13628659.2429514,4546945.28994379,6469,1222329345,CCFC - MARY LANE INFANT AND TODDLER CENTER,1 WEBSTER STREET,SAN FRANCISCO,CA,94117,NOT AVAILABLE,(415) 861-0144,CENTER BASED,OPEN,28,SAN FRANCISCO,06075,USA,37.769716,-122.428329,624410,CHILD DAY CARE CENTERS,https://data.chhs.ca.gov/dataset/bc819981-be52-4011-b3e5-b3fd09d4ea87/resource/cdf6928f-7cbe-49e8-b415-5422b357cfd3/download/ccl_locations_cc.csv,2022/05/17 00:00:00+00,IMAGERY/OTHER,2022/06/02 00:00:00+00,NOT AVAILABLE,INFANT CENTER
-13624251.1024354,4549719.07455164,6549,1222329373,MARIN DAY SCHOOLS - HILLS PLAZA CAMPUS (INFANT),2 HARRISON ST. NUMBER 150,SAN FRANCISCO,CA,94105,NOT AVAILABLE,(415) 777-9696,CENTER BASED,OPEN,21,SAN FRANCISCO,06075,USA,37.78941,-122.38873,624410,CHILD DAY CARE CENTERS,https://data.chhs.ca.gov/dataset/bc819981-be52-4011-b3e5-b3fd09d4ea87/resource/cdf6928f-7cbe-49e8-b415-5422b357cfd3/download/ccl_locations_cc.csv,2022/05/17 00:00:00+00,IMAGERY/OTHER,2022/06/02 00:00:00+00,NOT AVAILABLE,INFANT CENTER
-13630962.5545354,4550872.80573507,6629,1222329399,LETTERMAN DIGITAL ARTS CCC (INFANT),"1 LETTERMAN DRIVE, BLDG. B",SAN FRANCISCO,CA,94129,NOT AVAILABLE,(415) 746-5444,CENTER BASED,OPEN,40,SAN FRANCISCO,06075,USA,37.7976,-122.44902,624410,CHILD DAY CARE CENTERS,https://data.chhs.ca.gov/dataset/bc819981-be52-4011-b3e5-b3fd09d4ea87/resource/cdf6928f-7cbe-49e8-b415-5422b357cfd3/download/ccl_locations_cc.csv,2022/05/17 00:00:00+00,IMAGERY/OTHER,2022/06/02 00:00:00+00,NOT AVAILABLE,INFANT CENTER
-13624878.9443635,4539798.74107746,6739,1222329424,MARTHA HILLS LEARNING CENTER - INFANT,1042 JAMESTOWN AVENUE,SAN FRANCISCO,CA,94124,NOT AVAILABLE,(415) 467-7427,CENTER BASED,OPEN,15,SAN FRANCISCO,06075,USA,37.718951,-122.39437,624410,CHILD DAY CARE CENTERS,https://data.chhs.ca.gov/dataset/bc819981-be52-4011-b3e5-b3fd09d4ea87/resource/cdf6928f-7cbe-49e8-b415-5422b357cfd3/download/ccl_locations_cc.csv,2022/05/17 00:00:00+00,IMAGERY/OTHER,2022/06/02 00:00:00+00,NOT AVAILABLE,INFANT CENTER
-13625101.5833451,4549136.05929049,6806,1222329452,BRIGHT HORIZONS AT SECOND STREET - INFANT,"303 SECOND STREET, 2ND FL, NUMBER 250",SAN FRANCISCO,CA,94107,NOT AVAILABLE,(415) 495-2500,CENTER BASED,OPEN,38,SAN FRANCISCO,06075,USA,37.785271,-122.39637,624410,CHILD DAY CARE CENTERS,https://data.chhs.ca.gov/dataset/bc819981-be52-4011-b3e5-b3fd09d4ea87/resource/cdf6928f-7cbe-49e8-b415-5422b357cfd3/download/ccl_locations_cc.csv,2022/05/17 00:00:00+00,IMAGERY/OTHER,2022/06/02 00:00:00+00,NOT AVAILABLE,INFANT CENTER
-13623676.6938629,4542785.29391623,6821,1222329456,SOUTHEAST FAMILIES UNITED / CHILDREN'S CENTER,1337 EVANS AVENUE,SAN FRANCISCO,CA,94124,NOT AVAILABLE,(415) 920-7000,CENTER BASED,OPEN,20,SAN FRANCISCO,06075,USA,37.74017,-122.38357,624410,CHILD DAY CARE CENTERS,https://data.chhs.ca.gov/dataset/bc819981-be52-4011-b3e5-b3fd09d4ea87/resource/cdf6928f-7cbe-49e8-b415-5422b357cfd3/download/ccl_locations_cc.csv,2022/05/17 00:00:00+00,GEOCODE,2022/06/02 00:00:00+00,NOT AVAILABLE,INFANT CENTER
-13634845.5985642,4540887.13414615,6848,1222329464,SFSU - CHILDREN'S CAMPUS (INFANT),N. STATE DR. AND LAKE MERCED BLVD.,SAN FRANCISCO,CA,94132,NOT AVAILABLE,(415) 405-4011,CENTER BASED,OPEN,36,SAN FRANCISCO,06075,USA,37.72668457,-122.48390198,624410,CHILD DAY CARE CENTERS,https://data.chhs.ca.gov/dataset/bc819981-be52-4011-b3e5-b3fd09d4ea87/resource/cdf6928f-7cbe-49e8-b415-5422b357cfd3/download/ccl_locations_cc.csv,2022/05/17 00:00:00+00,UNVERIFIED,2022/06/02 00:00:00+00,NOT AVAILABLE,INFANT CENTER
-13622502.2732351,4554684.26790055,6913,1222329491,TREASURE ISLAND CHILD DEVELOPMENT CENTER - INFANT,"850 AVENUE D, BUILDING 502",SAN FRANCISCO,CA,94130,NOT AVAILABLE,(415) 834-0614,CENTER BASED,OPEN,21,SAN FRANCISCO,06075,USA,37.82465,-122.37302,624410,CHILD DAY CARE CENTERS,https://data.chhs.ca.gov/dataset/bc819981-be52-4011-b3e5-b3fd09d4ea87/resource/cdf6928f-7cbe-49e8-b415-5422b357cfd3/download/ccl_locations_cc.csv,2022/05/17 00:00:00+00,IMAGERY/OTHER,2022/06/02 00:00:00+00,NOT AVAILABLE,INFANT CENTER
-13632182.504835,4545990.67840129,7004,1222329525,BRIGHT HORIZONS UCSF MARILYN REED LUCIA CDC,610 PARNASSUS AVENUE,SAN FRANCISCO,CA,94143,NOT AVAILABLE,(415) 504-7023,CENTER BASED,OPEN,30,SAN FRANCISCO,06075,USA,37.762937,-122.459979,624410,CHILD DAY CARE CENTERS,https://data.chhs.ca.gov/dataset/bc819981-be52-4011-b3e5-b3fd09d4ea87/resource/cdf6928f-7cbe-49e8-b415-5422b357cfd3/download/ccl_locations_cc.csv,2022/05/17 00:00:00+00,IMAGERY/OTHER,2022/06/02 00:00:00+00,NOT AVAILABLE,INFANT CENTER
-13626752.4513936,4549161.2723699,7011,1222329527,CROSS CULTURAL FAM CTR (CCFC) - TENDERLOIN INFANT CTR,333 TAYLOR STREET,SAN FRANCISCO,CA,94102,NOT AVAILABLE,(415) 921-7019,CENTER BASED,OPEN,9,SAN FRANCISCO,06075,USA,37.78545,-122.4112,624410,CHILD DAY CARE CENTERS,https://data.chhs.ca.gov/dataset/bc819981-be52-4011-b3e5-b3fd09d4ea87/resource/cdf6928f-7cbe-49e8-b415-5422b357cfd3/download/ccl_locations_cc.csv,2022/05/17 00:00:00+00,IMAGERY/OTHER,2022/06/02 00:00:00+00,NOT AVAILABLE,INFANT CENTER
-13628551.2630453,4547365.81712225,7016,1222329530,FACESSF - HAYES VALLEY CDC (INFANT),305 BUCHANAN STREET,SAN FRANCISCO,CA,94102,NOT AVAILABLE,(415) 552-1535,CENTER BASED,OPEN,18,SAN FRANCISCO,06075,USA,37.7727021,-122.427359,624410,CHILD DAY CARE CENTERS,https://data.chhs.ca.gov/dataset/bc819981-be52-4011-b3e5-b3fd09d4ea87/resource/cdf6928f-7cbe-49e8-b415-5422b357cfd3/download/ccl_locations_cc.csv,2022/05/17 00:00:00+00,IMAGERY/OTHER,2022/06/02 00:00:00+00,NOT AVAILABLE,INFANT CENTER
-13634592.6831301,4539173.92379746,7017,1222329531,"SLIPPERY FISH INITIATIVE, INC. - INFANT",999 BROTHERHOOD WAY,SAN FRANCISCO,CA,94132,NOT AVAILABLE,(415) 672-2982,CENTER BASED,OPEN,23,SAN FRANCISCO,06075,USA,37.714511,-122.48163,624410,CHILD DAY CARE CENTERS,https://data.chhs.ca.gov/dataset/bc819981-be52-4011-b3e5-b3fd09d4ea87/resource/cdf6928f-7cbe-49e8-b415-5422b357cfd3/download/ccl_locations_cc.csv,2022/05/17 00:00:00+00,IMAGERY/OTHER,2022/06/02 00:00:00+00,NOT AVAILABLE,INFANT CENTER
-13627038.5424849,4539244.14351152,7029,1222329535,CCFC - VV JOHN KING CENTER (I),500 RAYMOND AVENUE,SAN FRANCISCO,CA,94134,NOT AVAILABLE,(415) 921-7019,CENTER BASED,OPEN,16,SAN FRANCISCO,06075,USA,37.71501,-122.41377,624410,CHILD DAY CARE CENTERS,https://data.chhs.ca.gov/dataset/bc819981-be52-4011-b3e5-b3fd09d4ea87/resource/cdf6928f-7cbe-49e8-b415-5422b357cfd3/download/ccl_locations_cc.csv,2022/05/17 00:00:00+00,IMAGERY/OTHER,2022/06/02 00:00:00+00,NOT AVAILABLE,INFANT CENTER
-13626903.845901,4538578.69351255,7030,1222329536,CCFC - VV HERITAGE CENTER (I),245 REY STREET,SAN FRANCISCO,CA,94134,NOT AVAILABLE,(415) 921-7019,CENTER BASED,OPEN,16,SAN FRANCISCO,06075,USA,37.710281,-122.41256,624410,CHILD DAY CARE CENTERS,https://data.chhs.ca.gov/dataset/bc819981-be52-4011-b3e5-b3fd09d4ea87/resource/cdf6928f-7cbe-49e8-b415-5422b357cfd3/download/ccl_locations_cc.csv,2022/05/17 00:00:00+00,GEOCODE,2022/06/02 00:00:00+00,NOT AVAILABLE,INFANT CENTER
-13637040.7100522,4548554.34430431,7059,1222329549,"LAND'S END SCHOOL - INFANT, THE",4150 CLEMENT ST BUILDING T - 35,SAN FRANCISCO,CA,94121,NOT AVAILABLE,(415) 751-8511,CENTER BASED,OPEN,18,SAN FRANCISCO,06075,USA,37.781141,-122.503621,624410,CHILD DAY CARE CENTERS,https://data.chhs.ca.gov/dataset/bc819981-be52-4011-b3e5-b3fd09d4ea87/resource/cdf6928f-7cbe-49e8-b415-5422b357cfd3/download/ccl_locations_cc.csv,2022/05/17 00:00:00+00,IMAGERY/OTHER,2022/06/02 00:00:00+00,NOT AVAILABLE,INFANT CENTER
-13627615.1774472,4548564.20360955,7068,1222329554,C5 CHILDREN'S SCHOOL - SFPUC (INF),525 GOLDEN GATE AVENUE,SAN FRANCISCO,CA,94102,NOT AVAILABLE,(415) 703-1277,CENTER BASED,OPEN,36,SAN FRANCISCO,06075,USA,37.781211,-122.41895,624410,CHILD DAY CARE CENTERS,https://data.chhs.ca.gov/dataset/bc819981-be52-4011-b3e5-b3fd09d4ea87/resource/cdf6928f-7cbe-49e8-b415-5422b357cfd3/download/ccl_locations_cc.csv,2022/05/17 00:00:00+00,IMAGERY/OTHER,2022/06/02 00:00:00+00,NOT AVAILABLE,INFANT CENTER
-13628436.8266088,4546274.27859465,7091,1222329562,HOLY FAMILY DAY HOME INFANT / TODLR CTR.,"299 DOLORES ST, RMS NUMBER 1 AND NUMBER 2",SAN FRANCISCO,CA,94103,NOT AVAILABLE,(415) 861-5361,CENTER BASED,OPEN,31,SAN FRANCISCO,06075,USA,37.764951,-122.426331,624410,CHILD DAY CARE CENTERS,https://data.chhs.ca.gov/dataset/bc819981-be52-4011-b3e5-b3fd09d4ea87/resource/cdf6928f-7cbe-49e8-b415-5422b357cfd3/download/ccl_locations_cc.csv,2022/05/17 00:00:00+00,IMAGERY/OTHER,2022/06/02 00:00:00+00,NOT AVAILABLE,INFANT CENTER
-13629406.3080541,4550941.9773216,7133,1222329577,"TINY GIANTS TOO, INC.",2163 FILBERT STREET,SAN FRANCISCO,CA,94123,NOT AVAILABLE,(415) 409-6581,CENTER BASED,OPEN,32,SAN FRANCISCO,06075,USA,37.798091,-122.43504,624410,CHILD DAY CARE CENTERS,https://data.chhs.ca.gov/dataset/bc819981-be52-4011-b3e5-b3fd09d4ea87/resource/cdf6928f-7cbe-49e8-b415-5422b357cfd3/download/ccl_locations_cc.csv,2022/05/17 00:00:00+00,GEOCODE,2022/06/02 00:00:00+00,NOT AVAILABLE,INFANT CENTER
-13637523.9479617,4544087.20843478,7179,1222329592,"GROWING TREE SCHOOL LLC, THE (INF)",1984 GREAT HIGHWAY,SAN FRANCISCO,CA,94116,NOT AVAILABLE,(415) 682-8889,CENTER BASED,OPEN,28,SAN FRANCISCO,06075,USA,37.749418,-122.507962,624410,CHILD DAY CARE CENTERS,https://data.chhs.ca.gov/dataset/bc819981-be52-4011-b3e5-b3fd09d4ea87/resource/cdf6928f-7cbe-49e8-b415-5422b357cfd3/download/ccl_locations_cc.csv,2022/05/17 00:00:00+00,IMAGERY/OTHER,2022/06/02 00:00:00+00,NOT AVAILABLE,INFANT CENTER
-13625918.6684075,4546534.79203229,7196,1222329596,BRIGHT HORIZONS AT KANSAS STREET (INF),"200 KANSAS STREET, STE 100",SAN FRANCISCO,CA,94103,NOT AVAILABLE,(415) 863-2533,CENTER BASED,OPEN,64,SAN FRANCISCO,06075,USA,37.766801,-122.40371,624410,CHILD DAY CARE CENTERS,https://data.chhs.ca.gov/dataset/bc819981-be52-4011-b3e5-b3fd09d4ea87/resource/cdf6928f-7cbe-49e8-b415-5422b357cfd3/download/ccl_locations_cc.csv,2022/05/17 00:00:00+00,IMAGERY/OTHER,2022/06/02 00:00:00+00,NOT AVAILABLE,INFANT CENTER
-13622632.5170393,4541245.53383809,7230,1222329610,WU YEE CHILDREN'S SERVICES - KIRKWOOD CCC (INF),729 KIRKWOOD AVENUE,SAN FRANCISCO,CA,94124,NOT AVAILABLE,(415) 822-5505,CENTER BASED,OPEN,22,SAN FRANCISCO,06075,USA,37.729231,-122.37419,624410,CHILD DAY CARE CENTERS,https://data.chhs.ca.gov/dataset/bc819981-be52-4011-b3e5-b3fd09d4ea87/resource/cdf6928f-7cbe-49e8-b415-5422b357cfd3/download/ccl_locations_cc.csv,2022/05/17 00:00:00+00,IMAGERY/OTHER,2022/06/02 00:00:00+00,NOT AVAILABLE,INFANT CENTER
-13626889.4856867,4551618.22071646,7308,1222329639,TELEGRAPH HILL NEIGHBORHOOD CTR. (INF.),660 LOMBARD STREET,SAN FRANCISCO,CA,94133,NOT AVAILABLE,(415) 421-6443,CENTER BASED,OPEN,12,SAN FRANCISCO,06075,USA,37.802891,-122.412431,624410,CHILD DAY CARE CENTERS,https://data.chhs.ca.gov/dataset/bc819981-be52-4011-b3e5-b3fd09d4ea87/resource/cdf6928f-7cbe-49e8-b415-5422b357cfd3/download/ccl_locations_cc.csv,2022/05/17 00:00:00+00,IMAGERY/OTHER,2022/06/02 00:00:00+00,NOT AVAILABLE,INFANT CENTER
-13626425.1720906,4550751.79178417,7439,1222329683,KAI MING RAINBOW INFANT / TODDLER CENTER,799 PACIFIC AVENUE,SAN FRANCISCO,CA,94133,NOT AVAILABLE,(415) 982-4777,CENTER BASED,OPEN,22,SAN FRANCISCO,06075,USA,37.796741,-122.40826,624410,CHILD DAY CARE CENTERS,https://data.chhs.ca.gov/dataset/bc819981-be52-4011-b3e5-b3fd09d4ea87/resource/cdf6928f-7cbe-49e8-b415-5422b357cfd3/download/ccl_locations_cc.csv,2022/05/17 00:00:00+00,GEOCODE,2022/06/02 00:00:00+00,NOT AVAILABLE,INFANT CENTER
-13624974.6791256,4545105.56876926,7443,1222329684,CCFC - OSCARYNE WILLIAMS CENTER,85 TURNER TERRACE,SAN FRANCISCO,CA,94107,NOT AVAILABLE,(415) 921-7019,CENTER BASED,OPEN,16,SAN FRANCISCO,06075,USA,37.756651,-122.39523,624410,CHILD DAY CARE CENTERS,https://data.chhs.ca.gov/dataset/bc819981-be52-4011-b3e5-b3fd09d4ea87/resource/cdf6928f-7cbe-49e8-b415-5422b357cfd3/download/ccl_locations_cc.csv,2022/05/17 00:00:00+00,GEOCODE,2022/06/02 00:00:00+00,NOT AVAILABLE,INFANT CENTER
-13632725.8552695,4547548.74421106,7481,1222329703,ANGELA'S CHILDREN CENTER,775 - 7TH AVENUE,SAN FRANCISCO,CA,94118,NOT AVAILABLE,(415) 386-0184,CENTER BASED,OPEN,36,SAN FRANCISCO,06075,USA,37.774001,-122.46486,624410,CHILD DAY CARE CENTERS,https://data.chhs.ca.gov/dataset/bc819981-be52-4011-b3e5-b3fd09d4ea87/resource/cdf6928f-7cbe-49e8-b415-5422b357cfd3/download/ccl_locations_cc.csv,2022/05/17 00:00:00+00,IMAGERY/OTHER,2022/06/02 00:00:00+00,NOT AVAILABLE,INFANT CENTER
-13625193.9785225,4549872.61625712,7497,1222321553,LITTLE TRAILBLAZERS (INF),50 FREMONT STREET,SAN FRANCISCO,CA,94105,NOT AVAILABLE,(650) 484-3000,CENTER BASED,OPEN,32,SAN FRANCISCO,06075,USA,37.7905,-122.3972,624410,CHILD DAY CARE CENTERS,https://data.chhs.ca.gov/dataset/bc819981-be52-4011-b3e5-b3fd09d4ea87/resource/cdf6928f-7cbe-49e8-b415-5422b357cfd3/download/ccl_locations_cc.csv,2022/05/17 00:00:00+00,IMAGERY/OTHER,2020/11/18 00:00:00+00,NOT AVAILABLE,INFANT CENTER
-13622872.6331809,4541965.76809584,7588,1222323722,FRANDELJA FAIRFAX,901 B FAIRFAX AVENUE,SAN FRANCISCO,CA,94124,NOT AVAILABLE,(415) 822-1699,CENTER BASED,OPEN,21,SAN FRANCISCO,06075,USA,37.734348,-122.376347,624410,CHILD DAY CARE CENTERS,https://data.chhs.ca.gov/dataset/bc819981-be52-4011-b3e5-b3fd09d4ea87/resource/cdf6928f-7cbe-49e8-b415-5422b357cfd3/download/ccl_locations_cc.csv,2022/05/17 00:00:00+00,GEOCODE,2020/11/07 00:00:00+00,NOT AVAILABLE,INFANT CENTER
-13624759.8325084,4546920.64553027,7634,1222329766,UNIVERSITY CHILD CARE AT MISSION BAY (INF),727 NELSON RISING LANE,SAN FRANCISCO,CA,94158,NOT AVAILABLE,(617) 673-8000,CENTER BASED,OPEN,90,SAN FRANCISCO,06075,USA,37.769541,-122.3933,624410,CHILD DAY CARE CENTERS,https://data.chhs.ca.gov/dataset/bc819981-be52-4011-b3e5-b3fd09d4ea87/resource/cdf6928f-7cbe-49e8-b415-5422b357cfd3/download/ccl_locations_cc.csv,2022/05/17 00:00:00+00,IMAGERY/OTHER,2022/06/02 00:00:00+00,NOT AVAILABLE,INFANT CENTER
-13625984.3469071,4541733.80134569,7658,1222323713,CENTRO PRIMEROS PASOS,901 BAYSHORE BLVD.,SAN FRANCISCO,CA,94124,NOT AVAILABLE,(415) 655-9491,CENTER BASED,OPEN,16,SAN FRANCISCO,06075,USA,37.7327,-122.4043,624410,CHILD DAY CARE CENTERS,https://data.chhs.ca.gov/dataset/bc819981-be52-4011-b3e5-b3fd09d4ea87/resource/cdf6928f-7cbe-49e8-b415-5422b357cfd3/download/ccl_locations_cc.csv,2022/05/17 00:00:00+00,IMAGERY/OTHER,2020/09/18 00:00:00+00,NOT AVAILABLE,INFANT CENTER
-13626090.2117428,4551946.49637555,7666,1222329775,BRIGHT HORIZONS AT 1700 MONTGOMERY ST. (INF),1700 MONTGOMERY STREET,SAN FRANCISCO,CA,94111,NOT AVAILABLE,(415) 240-4336,CENTER BASED,OPEN,48,SAN FRANCISCO,06075,USA,37.805221,-122.405251,624410,CHILD DAY CARE CENTERS,https://data.chhs.ca.gov/dataset/bc819981-be52-4011-b3e5-b3fd09d4ea87/resource/cdf6928f-7cbe-49e8-b415-5422b357cfd3/download/ccl_locations_cc.csv,2022/05/17 00:00:00+00,GEOCODE,2022/06/02 00:00:00+00,NOT AVAILABLE,INFANT CENTER
-13625605.8606384,4551078.49041676,7677,1222315049,KAI MING EARLY HEAD START - BROADWAY CENTER INF,820 BATTERY STREET,SAN FRANCISCO,CA,94111,NOT AVAILABLE,(415) 982-4570,HEAD START,OPEN,25,SAN FRANCISCO,06075,USA,37.79906,-122.4009,624410,"HEAD START PROGRAMS, SEPARATE FROM SCHOOLS",https://data.chhs.ca.gov/dataset/bc819981-be52-4011-b3e5-b3fd09d4ea87/resource/cdf6928f-7cbe-49e8-b415-5422b357cfd3/download/ccl_locations_cc.csv,2022/05/17 00:00:00+00,IMAGERY/OTHER,2020/03/27 00:00:00+00,NOT AVAILABLE,INFANT CENTER
-13633640.9014839,4543207.75072722,7685,1222329785,MEANINGFUL BEGINNINGS LLC,633 TARAVAL STREET,SAN FRANCISCO,CA,94116,NOT AVAILABLE,(415) 941-7965,CENTER BASED,OPEN,49,SAN FRANCISCO,06075,USA,37.743171,-122.47308,624410,CHILD DAY CARE CENTERS,https://data.chhs.ca.gov/dataset/bc819981-be52-4011-b3e5-b3fd09d4ea87/resource/cdf6928f-7cbe-49e8-b415-5422b357cfd3/download/ccl_locations_cc.csv,2022/05/17 00:00:00+00,IMAGERY/OTHER,2022/06/02 00:00:00+00,NOT AVAILABLE,INFANT CENTER
-13627587.3475745,4547945.76155219,7712,1222310566,MISSION MONTESSORI PRESCHOOL - INFANT,50 FELL STREET,SAN FRANCISCO,CA,94102,NOT AVAILABLE,(415) 805-8315,CENTER BASED,OPEN,29,SAN FRANCISCO,06075,USA,37.77682,-122.4187,624410,CHILD DAY CARE CENTERS,https://data.chhs.ca.gov/dataset/bc819981-be52-4011-b3e5-b3fd09d4ea87/resource/cdf6928f-7cbe-49e8-b415-5422b357cfd3/download/ccl_locations_cc.csv,2022/05/17 00:00:00+00,IMAGERY/OTHER,2020/03/26 00:00:00+00,NOT AVAILABLE,INFANT CENTER
-13636003.1010785,4547838.72452451,7774,1222327319,SUNNY INFANT AND PRESCHOOL CENTER (INFANT),3300 BALBOA STREET,SAN FRANCISCO,CA,94121,NOT AVAILABLE,(415) 831-3300,CENTER BASED,OPEN,22,SAN FRANCISCO,06075,USA,37.77606,-122.4943,624410,CHILD DAY CARE CENTERS,https://data.chhs.ca.gov/dataset/bc819981-be52-4011-b3e5-b3fd09d4ea87/resource/cdf6928f-7cbe-49e8-b415-5422b357cfd3/download/ccl_locations_cc.csv,2022/05/17 00:00:00+00,IMAGERY/OTHER,2020/10/07 00:00:00+00,NOT AVAILABLE,INFANT CENTER
-13627743.1948616,4544160.69937744,7778,1222323718,CREATIVE GARDENS,1429 VALENCIA STREET,SAN FRANCISCO,CA,94110,NOT AVAILABLE,(415) 577-8389,CENTER BASED,OPEN,20,SAN FRANCISCO,06075,USA,37.74994,-122.4201,624410,CHILD DAY CARE CENTERS,https://data.chhs.ca.gov/dataset/bc819981-be52-4011-b3e5-b3fd09d4ea87/resource/cdf6928f-7cbe-49e8-b415-5422b357cfd3/download/ccl_locations_cc.csv,2022/05/17 00:00:00+00,IMAGERY/OTHER,2020/12/05 00:00:00+00,NOT AVAILABLE,INFANT CENTER
-13626067.8365252,4547123.43558179,7779,1222329827,"STUDIO MONTESSORI, LLC (INF)",633 8TH STREET,SAN FRANCISCO,CA,94103,NOT AVAILABLE,(415) 510-1287,CENTER BASED,OPEN,12,SAN FRANCISCO,06075,USA,37.770981,-122.40505,624410,CHILD DAY CARE CENTERS,https://data.chhs.ca.gov/dataset/bc819981-be52-4011-b3e5-b3fd09d4ea87/resource/cdf6928f-7cbe-49e8-b415-5422b357cfd3/download/ccl_locations_cc.csv,2022/05/17 00:00:00+00,GEOCODE,2022/06/02 00:00:00+00,NOT AVAILABLE,INFANT CENTER
-13630695.499077,4548716.3197881,7844,1222329849,LAUREL HEIGHTS CHILD DEVELOPMENT CENTER (INFANT),"2675 GEARY BLVD, SUITE 400",SAN FRANCISCO,CA,94118,NOT AVAILABLE,(415) 306-4730,CENTER BASED,OPEN,64,SAN FRANCISCO,06075,USA,37.782291,-122.446621,624410,CHILD DAY CARE CENTERS,https://data.chhs.ca.gov/dataset/bc819981-be52-4011-b3e5-b3fd09d4ea87/resource/cdf6928f-7cbe-49e8-b415-5422b357cfd3/download/ccl_locations_cc.csv,2022/05/17 00:00:00+00,IMAGERY/OTHER,2022/06/02 00:00:00+00,NOT AVAILABLE,INFANT CENTER
-13626683.4333093,4547282.57220717,7858,1222329854,APPLE TREE CHILDREN CENTER - INFANT,1331 HARRISON STREET,SAN FRANCISCO,CA,94103,NOT AVAILABLE,(415) 695-4726,CENTER BASED,OPEN,16,SAN FRANCISCO,06075,USA,37.772111,-122.41058,624410,CHILD DAY CARE CENTERS,https://data.chhs.ca.gov/dataset/bc819981-be52-4011-b3e5-b3fd09d4ea87/resource/cdf6928f-7cbe-49e8-b415-5422b357cfd3/download/ccl_locations_cc.csv,2022/05/17 00:00:00+00,IMAGERY/OTHER,2022/06/02 00:00:00+00,NOT AVAILABLE,INFANT CENTER
-13626778.1661959,4548341.6672785,7889,1222329862,WAH MEI AT KIDS BY THE BAY - CIVIC CENTER (INF),90 7TH STREET,SAN FRANCISCO,CA,94103,NOT AVAILABLE,(415) 554-8100,CENTER BASED,OPEN,42,SAN FRANCISCO,06075,USA,37.779631,-122.411431,624410,CHILD DAY CARE CENTERS,https://data.chhs.ca.gov/dataset/bc819981-be52-4011-b3e5-b3fd09d4ea87/resource/cdf6928f-7cbe-49e8-b415-5422b357cfd3/download/ccl_locations_cc.csv,2022/05/17 00:00:00+00,IMAGERY/OTHER,2022/06/02 00:00:00+00,NOT AVAILABLE,INFANT CENTER
-13626529.2558145,4550900.41796295,7957,1222329898,"NORTH BEACH KIDS TOO, LLC",728 BROADWAY STREET,SAN FRANCISCO,CA,94133,NOT AVAILABLE,(415) 350-9213,CENTER BASED,OPEN,44,SAN FRANCISCO,06075,USA,37.797796,-122.409195,624410,CHILD DAY CARE CENTERS,https://data.chhs.ca.gov/dataset/bc819981-be52-4011-b3e5-b3fd09d4ea87/resource/cdf6928f-7cbe-49e8-b415-5422b357cfd3/download/ccl_locations_cc.csv,2022/05/17 00:00:00+00,GEOCODE,2022/06/02 00:00:00+00,NOT AVAILABLE,INFANT CENTER
-13624228.6604261,4546979.21483471,7992,1222329922,TEL HI MISSION BAY CHILD CARE,188 PIERPOINT LANE,SAN FRANCISCO,CA,94158,NOT AVAILABLE,(415) 580-7223,CENTER BASED,OPEN,9,SAN FRANCISCO,06075,USA,37.7699569,-122.3885284,624410,CHILD DAY CARE CENTERS,https://data.chhs.ca.gov/dataset/bc819981-be52-4011-b3e5-b3fd09d4ea87/resource/cdf6928f-7cbe-49e8-b415-5422b357cfd3/download/ccl_locations_cc.csv,2022/05/17 00:00:00+00,GEOCODE,2022/06/02 00:00:00+00,NOT AVAILABLE,INFANT CENTER
-13627705.9028322,4546386.93225447,8048,1222329962,MISSION HEAD START - LA FENIX AT 1950 (INF),"1954 MISSION ST, STE A",SAN FRANCISCO,CA,94103,NOT AVAILABLE,(415) 206-7752,HEAD START,OPEN,22,SAN FRANCISCO,06075,USA,37.765751,-122.419765,624410,"HEAD START PROGRAMS, SEPARATE FROM SCHOOLS",https://data.chhs.ca.gov/dataset/bc819981-be52-4011-b3e5-b3fd09d4ea87/resource/cdf6928f-7cbe-49e8-b415-5422b357cfd3/download/ccl_locations_cc.csv,2022/05/17 00:00:00+00,GEOCODE,2022/06/02 00:00:00+00,NOT AVAILABLE,INFANT CENTER
-13624755.9363262,4547238.77418541,8061,1222329973,KAI MING MISSION BAY CHILDREN'S CENTER,671 CHINA BASIN STREET,SAN FRANCISCO,CA,94158,NOT AVAILABLE,(415) 982-4777,CENTER BASED,OPEN,25,SAN FRANCISCO,06075,USA,37.7718,-122.393265,624410,CHILD DAY CARE CENTERS,https://data.chhs.ca.gov/dataset/bc819981-be52-4011-b3e5-b3fd09d4ea87/resource/cdf6928f-7cbe-49e8-b415-5422b357cfd3/download/ccl_locations_cc.csv,2022/05/17 00:00:00+00,GEOCODE,2022/06/02 00:00:00+00,NOT AVAILABLE,INFANT CENTER
-13628597.460634,4542700.41045883,8063,1222329975,FACESSF - BAYVIEW INFANT,100 WHITNEY CIRCLE,SAN FRANCISCO,CA,94124,NOT AVAILABLE,(415) 567-2357,CENTER BASED,OPEN,6,SAN FRANCISCO,06075,USA,37.739567,-122.427774,624410,CHILD DAY CARE CENTERS,https://data.chhs.ca.gov/dataset/bc819981-be52-4011-b3e5-b3fd09d4ea87/resource/cdf6928f-7cbe-49e8-b415-5422b357cfd3/download/ccl_locations_cc.csv,2022/05/17 00:00:00+00,IMAGERY/OTHER,2022/06/02 00:00:00+00,NOT AVAILABLE,INFANT CENTER
-13626661.1694111,4547527.61920027,8064,1222329976,L'ACADEMY PRESCHOOL SF SOMA,55 RINGOLD STREET,SAN FRANCISCO,CA,94103,NOT AVAILABLE,(415) 819-6922,CENTER BASED,OPEN,24,SAN FRANCISCO,06075,USA,37.773851,-122.41038,624410,CHILD DAY CARE CENTERS,https://data.chhs.ca.gov/dataset/bc819981-be52-4011-b3e5-b3fd09d4ea87/resource/cdf6928f-7cbe-49e8-b415-5422b357cfd3/download/ccl_locations_cc.csv,2022/05/17 00:00:00+00,GEOCODE,2022/06/02 00:00:00+00,NOT AVAILABLE,INFANT CENTER
-13629110.1982086,4544818.19888553,8087,1222329992,NOE VALLEY KIDS,3800 22ND STREET,SAN FRANCISCO,CA,94114,NOT AVAILABLE,(415) 619-2293,CENTER BASED,OPEN,32,SAN FRANCISCO,06075,USA,37.75461,-122.43238,624410,CHILD DAY CARE CENTERS,https://data.chhs.ca.gov/dataset/bc819981-be52-4011-b3e5-b3fd09d4ea87/resource/cdf6928f-7cbe-49e8-b415-5422b357cfd3/download/ccl_locations_cc.csv,2022/05/17 00:00:00+00,IMAGERY/OTHER,2022/06/02 00:00:00+00,NOT AVAILABLE,INFANT CENTER
-13632294.8262012,4544093.60015518,8088,1222329993,MEANINGFUL BEGINNINGS DEVELOPMENT CTR.,254 LAGUNA HONDA BLVD.,SAN FRANCISCO,CA,94116,NOT AVAILABLE,(415) 572-6376,CENTER BASED,OPEN,31,SAN FRANCISCO,06075,USA,37.7494634,-122.460988,624410,CHILD DAY CARE CENTERS,https://data.chhs.ca.gov/dataset/bc819981-be52-4011-b3e5-b3fd09d4ea87/resource/cdf6928f-7cbe-49e8-b415-5422b357cfd3/download/ccl_locations_cc.csv,2022/05/17 00:00:00+00,IMAGERY/OTHER,2022/06/02 00:00:00+00,NOT AVAILABLE,INFANT CENTER
-13633809.9957904,4548461.10390783,8090,1222329994,BABY PRODIGY NURSERY,5135 GEARY BLVD.,SAN FRANCISCO,CA,94121,NOT AVAILABLE,(415) 830-7898,CENTER BASED,OPEN,12,SAN FRANCISCO,06075,USA,37.780479,-122.474599,624410,CHILD DAY CARE CENTERS,https://data.chhs.ca.gov/dataset/bc819981-be52-4011-b3e5-b3fd09d4ea87/resource/cdf6928f-7cbe-49e8-b415-5422b357cfd3/download/ccl_locations_cc.csv,2022/05/17 00:00:00+00,IMAGERY/OTHER,2022/06/02 00:00:00+00,NOT AVAILABLE,INFANT CENTER
-13625446.7294263,4551163.58307661,8105,1222330004,YMCA SF CHINATOWN - TUNGLOK EARLY LEARNING CENTER,75 VALLEJO STREET,SAN FRANCISCO,CA,94111,NOT AVAILABLE,(415) 452-7582,CENTER BASED,OPEN,21,SAN FRANCISCO,06075,USA,37.799664,-122.3994705,624410,CHILD DAY CARE CENTERS,https://data.chhs.ca.gov/dataset/bc819981-be52-4011-b3e5-b3fd09d4ea87/resource/cdf6928f-7cbe-49e8-b415-5422b357cfd3/download/ccl_locations_cc.csv,2022/05/17 00:00:00+00,GEOCODE,2022/06/02 00:00:00+00,NOT AVAILABLE,INFANT CENTER
-13627906.8345131,4547570.85510159,8148,1222330033,L'ACADEMY PRESCHOOL SF HAYES VALLEY,49 PAGE STREET,SAN FRANCISCO,CA,94105,NOT AVAILABLE,(415) 658-7817,CENTER BASED,OPEN,16,SAN FRANCISCO,06075,USA,37.774158,-122.42157,624410,CHILD DAY CARE CENTERS,https://data.chhs.ca.gov/dataset/bc819981-be52-4011-b3e5-b3fd09d4ea87/resource/cdf6928f-7cbe-49e8-b415-5422b357cfd3/download/ccl_locations_cc.csv,2022/05/17 00:00:00+00,IMAGERY/OTHER,2022/06/02 00:00:00+00,NOT AVAILABLE,INFANT CENTER
-13632819.3636418,4547464.24442506,8150,1222330035,BRIGHT SPOT EARLY LEARNING CENTER LLC,3198 FULTON STREET,SAN FRANCISCO,CA,94118,NOT AVAILABLE,(510) 289-8072,CENTER BASED,OPEN,34,SAN FRANCISCO,06075,USA,37.773401,-122.4657,624410,CHILD DAY CARE CENTERS,https://data.chhs.ca.gov/dataset/bc819981-be52-4011-b3e5-b3fd09d4ea87/resource/cdf6928f-7cbe-49e8-b415-5422b357cfd3/download/ccl_locations_cc.csv,2022/05/17 00:00:00+00,GEOCODE,2022/06/02 00:00:00+00,NOT AVAILABLE,INFANT CENTER
-13627325.0788542,4546329.61955275,8167,1222330045,SOLMAR LEARNING CENTER,199 SHOTWELL STREET,SAN FRANCISCO,CA,94110,NOT AVAILABLE,(415) 713-7872,CENTER BASED,OPEN,24,SAN FRANCISCO,06075,USA,37.765344,-122.416344,624410,CHILD DAY CARE CENTERS,https://data.chhs.ca.gov/dataset/bc819981-be52-4011-b3e5-b3fd09d4ea87/resource/cdf6928f-7cbe-49e8-b415-5422b357cfd3/download/ccl_locations_cc.csv,2022/05/17 00:00:00+00,GEOCODE,2022/06/02 00:00:00+00,NOT AVAILABLE,INFANT CENTER
-13628010.3616395,4550213.5151129,8184,1222321849,L'ACADEMY PRESCHOOL SF NOB HILL,1868 VAN NESS AVENUE UNIT 1,SAN FRANCISCO,CA,94109,NOT AVAILABLE,(415) 706-2559,CENTER BASED,OPEN,8,SAN FRANCISCO,06075,USA,37.79292,-122.4225,624410,CHILD DAY CARE CENTERS,https://data.chhs.ca.gov/dataset/bc819981-be52-4011-b3e5-b3fd09d4ea87/resource/cdf6928f-7cbe-49e8-b415-5422b357cfd3/download/ccl_locations_cc.csv,2022/05/17 00:00:00+00,IMAGERY/OTHER,2020/10/14 00:00:00+00,NOT AVAILABLE,INFANT CENTER
-13624086.4609086,4543102.02933867,8198,1222330068,WU YEE CHILDREN'S SERVICES - SOUTHEAST ELC,1550 EVANS AVENUE,SAN FRANCISCO,CA,94124,NOT AVAILABLE,(415) 230-7508,CENTER BASED,OPEN,22,SAN FRANCISCO,06075,USA,37.74242,-122.387251,624410,CHILD DAY CARE CENTERS,https://data.chhs.ca.gov/dataset/bc819981-be52-4011-b3e5-b3fd09d4ea87/resource/cdf6928f-7cbe-49e8-b415-5422b357cfd3/download/ccl_locations_cc.csv,2022/05/17 00:00:00+00,IMAGERY/OTHER,2022/06/02 00:00:00+00,NOT AVAILABLE,INFANT CENTER
-13626741.3194445,4546205.13801439,8203,1222273208,SWEET PEAS TOO,2730 17TH STREET,SAN FRANCISCO,CA,94110,NOT AVAILABLE,(415) 701-0495,CENTER BASED,OPEN,32,SAN FRANCISCO,06075,USA,37.76446,-122.4111,624410,CHILD DAY CARE CENTERS,https://data.chhs.ca.gov/dataset/bc819981-be52-4011-b3e5-b3fd09d4ea87/resource/cdf6928f-7cbe-49e8-b415-5422b357cfd3/download/ccl_locations_cc.csv,2022/05/17 00:00:00+00,IMAGERY/OTHER,2020/05/15 00:00:00+00,NOT AVAILABLE,INFANT CENTER
-13631795.2243265,4544380.4713624,8255,1222269730,SECOND COMMUNITY CHILDCARE CENTER,500 CLARENDON AVENUE,SAN FRANCISCO,CA,94131,NOT AVAILABLE,(415) 759-1897,CENTER BASED,OPEN,160,SAN FRANCISCO,06075,USA,37.751501,-122.4565,624410,CHILD DAY CARE CENTERS,https://data.chhs.ca.gov/dataset/bc819981-be52-4011-b3e5-b3fd09d4ea87/resource/cdf6928f-7cbe-49e8-b415-5422b357cfd3/download/ccl_locations_cc.csv,2022/05/17 00:00:00+00,IMAGERY,2019/03/25 00:00:00+00,NOT AVAILABLE,SCHOOL-AGE DAY CARE CENTER
-13636303.6637036,4548028.85684553,8264,1222280116,"YMCA OF SF., RICHMOND BRANCH, LAFAYETTE SITE",4545 ANZA STREET,SAN FRANCISCO,CA,94121,NOT AVAILABLE,(415) 317-4882,CENTER BASED,OPEN,200,SAN FRANCISCO,06075,USA,37.77741,-122.497,624410,CHILD DAY CARE CENTERS,https://data.chhs.ca.gov/dataset/bc819981-be52-4011-b3e5-b3fd09d4ea87/resource/cdf6928f-7cbe-49e8-b415-5422b357cfd3/download/ccl_locations_cc.csv,2022/05/17 00:00:00+00,IMAGERY/OTHER,2019/03/13 00:00:00+00,NOT AVAILABLE,SCHOOL-AGE DAY CARE CENTER
-13637060.636241,4544646.42841424,8417,1222269926,SFUSD - NORIEGA (EES) SCHOOL AGE,1775 44TH - AVENUE,SAN FRANCISCO,CA,94122,NOT AVAILABLE,(415) 759-2853,CENTER BASED,OPEN,112,SAN FRANCISCO,06075,USA,37.75339,-122.5038,624410,CHILD DAY CARE CENTERS,https://data.chhs.ca.gov/dataset/bc819981-be52-4011-b3e5-b3fd09d4ea87/resource/cdf6928f-7cbe-49e8-b415-5422b357cfd3/download/ccl_locations_cc.csv,2022/05/17 00:00:00+00,IMAGERY,2019/04/17 00:00:00+00,NOT AVAILABLE,SCHOOL-AGE DAY CARE CENTER
-13624270.0267489,4541978.71784813,8419,1222269923,SFUSD - LEOLA HAVARD EARLY EDUCATION (SCHOOL AGE),1520 OAKDALE AVENUE,SAN FRANCISCO,CA,94124,NOT AVAILABLE,(415) 379-2700,CENTER BASED,OPEN,168,SAN FRANCISCO,06075,USA,37.73444,-122.3889,624410,CHILD DAY CARE CENTERS,https://data.chhs.ca.gov/dataset/bc819981-be52-4011-b3e5-b3fd09d4ea87/resource/cdf6928f-7cbe-49e8-b415-5422b357cfd3/download/ccl_locations_cc.csv,2022/05/17 00:00:00+00,IMAGERY,2019/03/13 00:00:00+00,NOT AVAILABLE,SCHOOL-AGE DAY CARE CENTER
-13636604.2263288,4542364.40262962,8427,1222276695,ULLOA CHILDREN'S CENTER,2650 42ND AVENUE,SAN FRANCISCO,CA,94116,NOT AVAILABLE,(415) 759-8854,CENTER BASED,OPEN,120,SAN FRANCISCO,06075,USA,37.73718,-122.4997,624410,"CHILD DAY CARE, BEFORE OR AFTER SCHOOL, SEPARATE FROM SCHOOLS",https://data.chhs.ca.gov/dataset/bc819981-be52-4011-b3e5-b3fd09d4ea87/resource/cdf6928f-7cbe-49e8-b415-5422b357cfd3/download/ccl_locations_cc.csv,2022/05/17 00:00:00+00,IMAGERY,2020/01/10 00:00:00+00,NOT AVAILABLE,SCHOOL-AGE DAY CARE CENTER
-13630537.3140805,4540177.16776829,8453,1222327905,SFUSD - SAN MIGUEL (EES) SCHOOL AGE,300 SENECA AVENUE,SAN FRANCISCO,CA,94112,NOT AVAILABLE,(415) 469-4756,CENTER BASED,OPEN,148,SAN FRANCISCO,06075,USA,37.72164,-122.4452,624410,"CHILD DAY CARE, BEFORE OR AFTER SCHOOL, SEPARATE FROM SCHOOLS",https://data.chhs.ca.gov/dataset/bc819981-be52-4011-b3e5-b3fd09d4ea87/resource/cdf6928f-7cbe-49e8-b415-5422b357cfd3/download/ccl_locations_cc.csv,2022/05/17 00:00:00+00,IMAGERY,2020/10/02 00:00:00+00,NOT AVAILABLE,SCHOOL-AGE DAY CARE CENTER
-13631149.5712799,4546095.30259849,8461,1222248802,GRATTAN AFTER SCHOOL PROGRAM,165 GRATTAN ST.,SAN FRANCISCO,CA,94117,NOT AVAILABLE,(415) 506-8617,CENTER BASED,OPEN,280,SAN FRANCISCO,06075,USA,37.76368,-122.4507,624410,"CHILD DAY CARE, BEFORE OR AFTER SCHOOL, SEPARATE FROM SCHOOLS",https://data.chhs.ca.gov/dataset/bc819981-be52-4011-b3e5-b3fd09d4ea87/resource/cdf6928f-7cbe-49e8-b415-5422b357cfd3/download/ccl_locations_cc.csv,2022/05/17 00:00:00+00,IMAGERY/OTHER,2020/05/12 00:00:00+00,NOT AVAILABLE,SCHOOL-AGE DAY CARE CENTER
-13635869.5176895,4543998.79473099,8487,1222252653,K.E.E.P. INC.,2051 34TH AVENUE,SAN FRANCISCO,CA,94116,NOT AVAILABLE,(415) 664-8685,CENTER BASED,OPEN,63,SAN FRANCISCO,06075,USA,37.74879,-122.4931,624410,"CHILD DAY CARE, BEFORE OR AFTER SCHOOL, SEPARATE FROM SCHOOLS",https://data.chhs.ca.gov/dataset/bc819981-be52-4011-b3e5-b3fd09d4ea87/resource/cdf6928f-7cbe-49e8-b415-5422b357cfd3/download/ccl_locations_cc.csv,2022/05/17 00:00:00+00,IMAGERY,2020/05/20 00:00:00+00,NOT AVAILABLE,SCHOOL-AGE DAY CARE CENTER
-13636555.3570723,4541545.33216271,8491,1222265946,POMEROY RECREATION AND REHABILITATION CENTER,207 SKYLINE BLVD.,SAN FRANCISCO,CA,94132,NOT AVAILABLE,(415) 665-4100,CENTER BASED,OPEN,111,SAN FRANCISCO,06075,USA,37.731361,-122.499261,624410,CHILD DAY CARE CENTERS,https://data.chhs.ca.gov/dataset/bc819981-be52-4011-b3e5-b3fd09d4ea87/resource/cdf6928f-7cbe-49e8-b415-5422b357cfd3/download/ccl_locations_cc.csv,2022/05/17 00:00:00+00,IMAGERY,2019/03/20 00:00:00+00,NOT AVAILABLE,SCHOOL-AGE DAY CARE CENTER
-13631962.2035627,4549378.19188876,8553,1222241369,CLAIRE LILIENTHAL AFTER SCHOOL PROGRAM,3960 (AKA3950) SACRAMENTO ST,SAN FRANCISCO,CA,94118,NOT AVAILABLE,(415) 750-1577,CENTER BASED,OPEN,130,SAN FRANCISCO,06075,USA,37.78699,-122.458,624410,"CHILD DAY CARE, BEFORE OR AFTER SCHOOL, SEPARATE FROM SCHOOLS",https://data.chhs.ca.gov/dataset/bc819981-be52-4011-b3e5-b3fd09d4ea87/resource/cdf6928f-7cbe-49e8-b415-5422b357cfd3/download/ccl_locations_cc.csv,2022/05/17 00:00:00+00,IMAGERY/OTHER,2019/11/04 00:00:00+00,NOT AVAILABLE,SCHOOL-AGE DAY CARE CENTER
-13635457.6355736,4545285.6541825,8592,1222252665,"K.E.E.P., INC. (LAWTON)",1570 - 31ST AVENUE,SAN FRANCISCO,CA,94122,NOT AVAILABLE,(415) 681-0930,CENTER BASED,OPEN,76,SAN FRANCISCO,06075,USA,37.75793,-122.4894,624410,"CHILD DAY CARE, BEFORE OR AFTER SCHOOL, SEPARATE FROM SCHOOLS",https://data.chhs.ca.gov/dataset/bc819981-be52-4011-b3e5-b3fd09d4ea87/resource/cdf6928f-7cbe-49e8-b415-5422b357cfd3/download/ccl_locations_cc.csv,2022/05/17 00:00:00+00,IMAGERY/OTHER,2020/05/21 00:00:00+00,NOT AVAILABLE,SCHOOL-AGE DAY CARE CENTER
-13631105.0434836,4547571.13676928,8731,1222280112,"YMCA OF SF., BUCHANAN BRANCH, NEW TRADITIONS",2049 GROVE,SAN FRANCISCO,CA,94117,NOT AVAILABLE,(415) 931-9622,CENTER BASED,OPEN,363,SAN FRANCISCO,06075,USA,37.77416,-122.4503,624410,CHILD DAY CARE CENTERS,https://data.chhs.ca.gov/dataset/bc819981-be52-4011-b3e5-b3fd09d4ea87/resource/cdf6928f-7cbe-49e8-b415-5422b357cfd3/download/ccl_locations_cc.csv,2022/05/17 00:00:00+00,IMAGERY,2019/03/13 00:00:00+00,NOT AVAILABLE,SCHOOL-AGE DAY CARE CENTER
-13626997.3542733,4548775.33582988,8782,1222327610,CCFC - TURK SCHOOL AGE CENTER,259 TURK STREET,SAN FRANCISCO,CA,94102,NOT AVAILABLE,(415) 321-0648,CENTER BASED,OPEN,53,SAN FRANCISCO,06075,USA,37.78271,-122.4134,624410,"CHILD DAY CARE, BEFORE OR AFTER SCHOOL, SEPARATE FROM SCHOOLS",https://data.chhs.ca.gov/dataset/bc819981-be52-4011-b3e5-b3fd09d4ea87/resource/cdf6928f-7cbe-49e8-b415-5422b357cfd3/download/ccl_locations_cc.csv,2022/05/17 00:00:00+00,GEOCODE,2020/10/14 00:00:00+00,NOT AVAILABLE,SCHOOL-AGE DAY CARE CENTER
-13628075.0382637,4547548.74421106,8854,1222330166,HELEN HAWK CHILDREN'S CTR - COMPASS FAM. SRVS. - SA,111 PAGE STREET,SAN FRANCISCO,CA,94102,NOT AVAILABLE,(415) 644-0504,CENTER BASED,OPEN,5,SAN FRANCISCO,06075,USA,37.774001,-122.423081,624410,CHILD DAY CARE CENTERS,https://data.chhs.ca.gov/dataset/bc819981-be52-4011-b3e5-b3fd09d4ea87/resource/cdf6928f-7cbe-49e8-b415-5422b357cfd3/download/ccl_locations_cc.csv,2022/05/17 00:00:00+00,IMAGERY/OTHER,2022/06/02 00:00:00+00,NOT AVAILABLE,SCHOOL-AGE DAY CARE CENTER
-13632307.2939842,4550884.07602332,8882,1222321198,SFUSD - PRESIDIO (EES) SCHOOL AGE,387 MORAGA AVENUE,SAN FRANCISCO,CA,94129,NOT AVAILABLE,(415) 561-5822,CENTER BASED,OPEN,75,SAN FRANCISCO,06075,USA,37.79768,-122.4611,624410,"CHILD DAY CARE, BEFORE OR AFTER SCHOOL, SEPARATE FROM SCHOOLS",https://data.chhs.ca.gov/dataset/bc819981-be52-4011-b3e5-b3fd09d4ea87/resource/cdf6928f-7cbe-49e8-b415-5422b357cfd3/download/ccl_locations_cc.csv,2022/05/17 00:00:00+00,GEOCODE,2020/11/02 00:00:00+00,NOT AVAILABLE,SCHOOL-AGE DAY CARE CENTER
-13625917.5552126,4550096.59399938,8905,1222328048,BRIGHT HORIZONS SAN FRANCISCO CALIFORNIA ST - SCH,555 CALIFORNIA STREET,SAN FRANCISCO,CA,94104,NOT AVAILABLE,(415) 392-7531,CENTER BASED,OPEN,14,SAN FRANCISCO,06075,USA,37.79209,-122.4037,624410,CHILD DAY CARE CENTERS,https://data.chhs.ca.gov/dataset/bc819981-be52-4011-b3e5-b3fd09d4ea87/resource/cdf6928f-7cbe-49e8-b415-5422b357cfd3/download/ccl_locations_cc.csv,2022/05/17 00:00:00+00,IMAGERY/OTHER,2020/10/06 00:00:00+00,NOT AVAILABLE,SCHOOL-AGE DAY CARE CENTER
-13625962.0830089,4541291.84015235,8988,1222324056,FAMILY CONNECTIONS CENTERS - SCHOOL AGE,2565 SAN BRUNO AVENUE,SAN FRANCISCO,CA,94134,NOT AVAILABLE,(415) 715-6746,CENTER BASED,OPEN,74,SAN FRANCISCO,06075,USA,37.72956,-122.4041,624410,"CHILD DAY CARE, BEFORE OR AFTER SCHOOL, SEPARATE FROM SCHOOLS",https://data.chhs.ca.gov/dataset/bc819981-be52-4011-b3e5-b3fd09d4ea87/resource/cdf6928f-7cbe-49e8-b415-5422b357cfd3/download/ccl_locations_cc.csv,2022/05/17 00:00:00+00,IMAGERY/OTHER,2020/11/08 00:00:00+00,NOT AVAILABLE,SCHOOL-AGE DAY CARE CENTER
-13630359.2028953,4544864.66187674,9020,1222240177,CHILDREN'S AFTER SCHOOL ARTS,443 BURNETT STREET,SAN FRANCISCO,CA,94131,NOT AVAILABLE,(415) 643-2272,CENTER BASED,OPEN,200,SAN FRANCISCO,06075,USA,37.75494,-122.4436,624410,"CHILD DAY CARE, BEFORE OR AFTER SCHOOL, SEPARATE FROM SCHOOLS",https://data.chhs.ca.gov/dataset/bc819981-be52-4011-b3e5-b3fd09d4ea87/resource/cdf6928f-7cbe-49e8-b415-5422b357cfd3/download/ccl_locations_cc.csv,2022/05/17 00:00:00+00,IMAGERY/OTHER,2019/11/04 00:00:00+00,NOT AVAILABLE,SCHOOL-AGE DAY CARE CENTER
-13634021.6141424,4547724.64679845,9027,1222280115,"YMCA OF SF., RICHMOND BRANCH, ARGONNE SITE",680 18TH AVENUE,SAN FRANCISCO,CA,94121,NOT AVAILABLE,(415) 831-4093,CENTER BASED,OPEN,200,SAN FRANCISCO,06075,USA,37.77525,-122.4765,624410,CHILD DAY CARE CENTERS,https://data.chhs.ca.gov/dataset/bc819981-be52-4011-b3e5-b3fd09d4ea87/resource/cdf6928f-7cbe-49e8-b415-5422b357cfd3/download/ccl_locations_cc.csv,2022/05/17 00:00:00+00,IMAGERY,2019/03/13 00:00:00+00,NOT AVAILABLE,SCHOOL-AGE DAY CARE CENTER
-13628689.4105334,4549365.51464965,9074,1222262929,NIHONMACHI LITTLE FRIENDS,1700 SUTTER STREET,SAN FRANCISCO,CA,94115,NOT AVAILABLE,(415) 346-5064,CENTER BASED,OPEN,70,SAN FRANCISCO,06075,USA,37.7869,-122.4286,624410,CHILD DAY CARE CENTERS,https://data.chhs.ca.gov/dataset/bc819981-be52-4011-b3e5-b3fd09d4ea87/resource/cdf6928f-7cbe-49e8-b415-5422b357cfd3/download/ccl_locations_cc.csv,2022/05/17 00:00:00+00,IMAGERY/OTHER,2020/05/20 00:00:00+00,NOT AVAILABLE,SCHOOL-AGE DAY CARE CENTER
-13636581.9624306,4544294.44859187,9126,1222280118,"YMCA OF SF., STONESTOWN BRANCH, JOHN O'CONNEL SITE",1920 41ST AVENUE,SAN FRANCISCO,CA,94116,NOT AVAILABLE,(415) 850-2901,CENTER BASED,OPEN,45,SAN FRANCISCO,06075,USA,37.75089,-122.4995,624410,CHILD DAY CARE CENTERS,https://data.chhs.ca.gov/dataset/bc819981-be52-4011-b3e5-b3fd09d4ea87/resource/cdf6928f-7cbe-49e8-b415-5422b357cfd3/download/ccl_locations_cc.csv,2022/05/17 00:00:00+00,IMAGERY/OTHER,2019/03/13 00:00:00+00,NOT AVAILABLE,SCHOOL-AGE DAY CARE CENTER
-13626897.1667316,4551680.07100376,9165,1222273539,TELEGRAPH HILL NEIGHBORHOOD CENTER,660 LOMBARD STREET,SAN FRANCISCO,CA,94133,NOT AVAILABLE,(415) 421-6443,CENTER BASED,OPEN,110,SAN FRANCISCO,06075,USA,37.80333,-122.4125,624410,CHILD DAY CARE CENTERS,https://data.chhs.ca.gov/dataset/bc819981-be52-4011-b3e5-b3fd09d4ea87/resource/cdf6928f-7cbe-49e8-b415-5422b357cfd3/download/ccl_locations_cc.csv,2022/05/17 00:00:00+00,IMAGERY/OTHER,2020/03/27 00:00:00+00,NOT AVAILABLE,SCHOOL-AGE DAY CARE CENTER
-13627320.1807966,4547804.92358649,9560,1222260104,MAUREEN AND CRAIG SULLIVAN YOUTH SERVICES,801 JESSIE STREET,SAN FRANCISCO,CA,94103,NOT AVAILABLE,(416) 863-1141,CENTER BASED,OPEN,71,SAN FRANCISCO,06075,USA,37.77582,-122.4163,624410,CHILD DAY CARE CENTERS,https://data.chhs.ca.gov/dataset/bc819981-be52-4011-b3e5-b3fd09d4ea87/resource/cdf6928f-7cbe-49e8-b415-5422b357cfd3/download/ccl_locations_cc.csv,2022/05/17 00:00:00+00,IMAGERY/OTHER,2020/01/16 00:00:00+00,NOT AVAILABLE,SCHOOL-AGE DAY CARE CENTER
-13624982.47149,4549121.83294302,9635,1222327694,BRIGHT HORIZONS AT SECOND STREET - SCHOOL AGE,"303 2ND STREET, 2ND FLR. NUMBER 250",SAN FRANCISCO,CA,94107,NOT AVAILABLE,(415) 495-2500,CENTER BASED,OPEN,12,SAN FRANCISCO,06075,USA,37.78517,-122.3953,624410,CHILD DAY CARE CENTERS,https://data.chhs.ca.gov/dataset/bc819981-be52-4011-b3e5-b3fd09d4ea87/resource/cdf6928f-7cbe-49e8-b415-5422b357cfd3/download/ccl_locations_cc.csv,2022/05/17 00:00:00+00,IMAGERY/OTHER,2020/09/30 00:00:00+00,NOT AVAILABLE,SCHOOL-AGE DAY CARE CENTER
-13631205.2310253,4538394.22123628,9636,1222264252,OUR KIDS FIRST,"5845 MISSION ST, STE 301",SAN FRANCISCO,CA,94112,NOT AVAILABLE,(415) 585-1104,CENTER BASED,OPEN,120,SAN FRANCISCO,06075,USA,37.70897,-122.4512,624410,CHILD DAY CARE CENTERS,https://data.chhs.ca.gov/dataset/bc819981-be52-4011-b3e5-b3fd09d4ea87/resource/cdf6928f-7cbe-49e8-b415-5422b357cfd3/download/ccl_locations_cc.csv,2022/05/17 00:00:00+00,IMAGERY/OTHER,2020/01/23 00:00:00+00,NOT AVAILABLE,SCHOOL-AGE DAY CARE CENTER
-13623735.6931931,4541925.22984487,9647,1222327634,FACESSF - BAYVIEW SCHOOL AGE,100 WHITNEY YOUNG CIRCLE,SAN FRANCISCO,CA,94124,NOT AVAILABLE,(415) 821-7550,CENTER BASED,OPEN,90,SAN FRANCISCO,06075,USA,37.73406,-122.3841,624410,"CHILD DAY CARE, BEFORE OR AFTER SCHOOL, SEPARATE FROM SCHOOLS",https://data.chhs.ca.gov/dataset/bc819981-be52-4011-b3e5-b3fd09d4ea87/resource/cdf6928f-7cbe-49e8-b415-5422b357cfd3/download/ccl_locations_cc.csv,2022/05/17 00:00:00+00,IMAGERY/OTHER,2020/12/16 00:00:00+00,NOT AVAILABLE,SCHOOL-AGE DAY CARE CENTER
-13625939.8191108,4538864.202806,9744,1222327550,CCFC - 50 RAYMOND CENTER (SA),50 RAYMOND AVENUE,SAN FRANCISCO,CA,94134,NOT AVAILABLE,(415) 921-7019,CENTER BASED,OPEN,36,SAN FRANCISCO,06075,USA,37.71231,-122.4039,624410,CHILD DAY CARE CENTERS,https://data.chhs.ca.gov/dataset/bc819981-be52-4011-b3e5-b3fd09d4ea87/resource/cdf6928f-7cbe-49e8-b415-5422b357cfd3/download/ccl_locations_cc.csv,2022/05/17 00:00:00+00,IMAGERY,2020/10/15 00:00:00+00,NOT AVAILABLE,SCHOOL-AGE DAY CARE CENTER
-13629246.0079873,4550216.33250534,9903,1222323032,K.E.E.P. - SFPM,2340 JACKSON STREET,SAN FRANCISCO,CA,94115,NOT AVAILABLE,(415) 749-3544,CENTER BASED,OPEN,75,SAN FRANCISCO,06075,USA,37.79294,-122.4336,624410,"CHILD DAY CARE, BEFORE OR AFTER SCHOOL, SEPARATE FROM SCHOOLS",https://data.chhs.ca.gov/dataset/bc819981-be52-4011-b3e5-b3fd09d4ea87/resource/cdf6928f-7cbe-49e8-b415-5422b357cfd3/download/ccl_locations_cc.csv,2022/05/17 00:00:00+00,IMAGERY/OTHER,2020/10/05 00:00:00+00,NOT AVAILABLE,SCHOOL-AGE DAY CARE CENTER
-13626641.1319028,4544397.22547073,9915,1222237516,"BUENA VISTA CHILD CARE, INC. (SA)",1266 FLORIDA STREET,SAN FRANCISCO,CA,94110,NOT AVAILABLE,(415) 283-5545,CENTER BASED,OPEN,90,SAN FRANCISCO,06075,USA,37.75162,-122.4102,624410,CHILD DAY CARE CENTERS,https://data.chhs.ca.gov/dataset/bc819981-be52-4011-b3e5-b3fd09d4ea87/resource/cdf6928f-7cbe-49e8-b415-5422b357cfd3/download/ccl_locations_cc.csv,2022/05/17 00:00:00+00,IMAGERY,2019/04/15 00:00:00+00,NOT AVAILABLE,SCHOOL-AGE DAY CARE CENTER
-13630437.1265388,4546923.32120663,9966,1222237488,YMCA BUCHANAN - CIS AFTER SCHOOL PROGRAM,1250 WALLER STREET,SAN FRANCISCO,CA,94117,NOT AVAILABLE,(415) 452-7582,CENTER BASED,OPEN,400,SAN FRANCISCO,06075,USA,37.76956,-122.4443,624410,"CHILD DAY CARE, BEFORE OR AFTER SCHOOL, SEPARATE FROM SCHOOLS",https://data.chhs.ca.gov/dataset/bc819981-be52-4011-b3e5-b3fd09d4ea87/resource/cdf6928f-7cbe-49e8-b415-5422b357cfd3/download/ccl_locations_cc.csv,2022/05/17 00:00:00+00,IMAGERY,2019/03/13 00:00:00+00,NOT AVAILABLE,SCHOOL-AGE DAY CARE CENTER
-13634589.3435454,4542713.50189224,10040,1222312335,YMCA OF SF - STONESTOWN DIANE FEINSTEIN,2550 25TH AVENUE,SAN FRANCISCO,CA,94116,NOT AVAILABLE,(415) 452-7582,CENTER BASED,OPEN,500,SAN FRANCISCO,06075,USA,37.73966,-122.4816,624410,"CHILD DAY CARE, BEFORE OR AFTER SCHOOL, SEPARATE FROM SCHOOLS",https://data.chhs.ca.gov/dataset/bc819981-be52-4011-b3e5-b3fd09d4ea87/resource/cdf6928f-7cbe-49e8-b415-5422b357cfd3/download/ccl_locations_cc.csv,2022/05/17 00:00:00+00,IMAGERY/OTHER,2020/03/24 00:00:00+00,NOT AVAILABLE,SCHOOL-AGE DAY CARE CENTER
-13630325.807048,4547561.27840438,10046,1222316161,HAMILTON TRANSITIONAL HOUSING,1631 HAYES STREET,SAN FRANCISCO,CA,94117,NOT AVAILABLE,(415) 321-2612,CENTER BASED,OPEN,28,SAN FRANCISCO,06075,USA,37.77409,-122.4433,624410,CHILD DAY CARE CENTERS,https://data.chhs.ca.gov/dataset/bc819981-be52-4011-b3e5-b3fd09d4ea87/resource/cdf6928f-7cbe-49e8-b415-5422b357cfd3/download/ccl_locations_cc.csv,2022/05/17 00:00:00+00,UNVERIFIED,2020/03/31 00:00:00+00,NOT AVAILABLE,SCHOOL-AGE DAY CARE CENTER
-13627175.4654586,4548672.51573474,10047,1222312142,HAMILTON SHELTER PROGRAM,260 GOLDEN GATE AVENUE,SAN FRANCISCO,CA,94102,NOT AVAILABLE,(415) 342-2203,CENTER BASED,OPEN,23,SAN FRANCISCO,06075,USA,37.78198,-122.415,624410,CHILD DAY CARE CENTERS,https://data.chhs.ca.gov/dataset/bc819981-be52-4011-b3e5-b3fd09d4ea87/resource/cdf6928f-7cbe-49e8-b415-5422b357cfd3/download/ccl_locations_cc.csv,2022/05/17 00:00:00+00,IMAGERY/OTHER,2020/03/24 00:00:00+00,NOT AVAILABLE,SCHOOL-AGE DAY CARE CENTER
-13634032.7460914,4546010.81460521,10096,1222321077,YMCA OF SF - RICHMOND BRANCH J - A - S PROGRAM,1725 IRVING STREET,SAN FRANCISCO,CA,94122,NOT AVAILABLE,(415) 452-7582,CENTER BASED,OPEN,300,SAN FRANCISCO,06075,USA,37.76308,-122.4766,624410,"CHILD DAY CARE, BEFORE OR AFTER SCHOOL, SEPARATE FROM SCHOOLS",https://data.chhs.ca.gov/dataset/bc819981-be52-4011-b3e5-b3fd09d4ea87/resource/cdf6928f-7cbe-49e8-b415-5422b357cfd3/download/ccl_locations_cc.csv,2022/05/17 00:00:00+00,IMAGERY,2019/12/18 00:00:00+00,NOT AVAILABLE,SCHOOL-AGE DAY CARE CENTER
-13632674.6483038,4543210.42545002,10103,1222327689,YMCA OF SF - STONESTOWN BRANCH WEST PORTAL ASP,5 LENOX WAY,SAN FRANCISCO,CA,94127,NOT AVAILABLE,(415) 452-7582,CENTER BASED,OPEN,500,SAN FRANCISCO,06075,USA,37.74319,-122.4644,624410,"CHILD DAY CARE, BEFORE OR AFTER SCHOOL, SEPARATE FROM SCHOOLS",https://data.chhs.ca.gov/dataset/bc819981-be52-4011-b3e5-b3fd09d4ea87/resource/cdf6928f-7cbe-49e8-b415-5422b357cfd3/download/ccl_locations_cc.csv,2022/05/17 00:00:00+00,IMAGERY,2020/09/30 00:00:00+00,NOT AVAILABLE,SCHOOL-AGE DAY CARE CENTER
-13635947.4413331,4543113.29121982,10558,1222258418,LITTLE STAR,2540 TARAVAL STREET,SAN FRANCISCO,CA,94116,NOT AVAILABLE,(415) 753-3442,CENTER BASED,OPEN,45,SAN FRANCISCO,06075,USA,37.7425,-122.4938,624410,CHILD DAY CARE CENTERS,https://data.chhs.ca.gov/dataset/bc819981-be52-4011-b3e5-b3fd09d4ea87/resource/cdf6928f-7cbe-49e8-b415-5422b357cfd3/download/ccl_locations_cc.csv,2022/05/17 00:00:00+00,IMAGERY,2019/03/12 00:00:00+00,NOT AVAILABLE,DAY CARE CENTER
-13633943.6904988,4539018.99179256,10659,1222252022,JCCSF BROTHERHOOD WAY PRESCHOOL,655 BROTHERHOOD WAY,SAN FRANCISCO,CA,94132,NOT AVAILABLE,(415) 333-4289,CENTER BASED,OPEN,116,SAN FRANCISCO,06075,USA,37.71341,-122.4758,624410,CHILD DAY CARE CENTERS,https://data.chhs.ca.gov/dataset/bc819981-be52-4011-b3e5-b3fd09d4ea87/resource/cdf6928f-7cbe-49e8-b415-5422b357cfd3/download/ccl_locations_cc.csv,2022/05/17 00:00:00+00,IMAGERY,2019/03/11 00:00:00+00,NOT AVAILABLE,DAY CARE CENTER
-13629379.5913763,4550181.11515471,10660,1222238265,CALVARY PRESBYTERIAN CHURCH NURSERY SCHOOL,2515 FILLMORE STREET,SAN FRANCISCO,CA,94115,NOT AVAILABLE,(415) 346-4715,CENTER BASED,OPEN,75,SAN FRANCISCO,06075,USA,37.79269,-122.4348,624410,CHILD DAY CARE CENTERS,https://data.chhs.ca.gov/dataset/bc819981-be52-4011-b3e5-b3fd09d4ea87/resource/cdf6928f-7cbe-49e8-b415-5422b357cfd3/download/ccl_locations_cc.csv,2022/05/17 00:00:00+00,IMAGERY/OTHER,2020/05/15 00:00:00+00,NOT AVAILABLE,DAY CARE CENTER
-13630225.6195063,4542855.67873366,10661,1222248225,GLENRIDGE COOPERATIVE NURSERY SCHOOL,GLEN PARK CANYON (CHENERY - ELK),SAN FRANCISCO,CA,94131,NOT AVAILABLE,(415) 586-2771,CENTER BASED,OPEN,25,SAN FRANCISCO,06075,USA,37.74067,-122.4424,624410,"CHILD DAY CARE, BEFORE OR AFTER SCHOOL, SEPARATE FROM SCHOOLS",https://data.chhs.ca.gov/dataset/bc819981-be52-4011-b3e5-b3fd09d4ea87/resource/cdf6928f-7cbe-49e8-b415-5422b357cfd3/download/ccl_locations_cc.csv,2022/05/17 00:00:00+00,IMAGERY/OTHER,2019/11/04 00:00:00+00,NOT AVAILABLE,DAY CARE CENTER
-13631294.2866179,4545958.71401767,10662,1222249413,HAIGHT ASHBURY COOPERATIVE NURSERY SCHOOL,1180 STANYAN STREET,SAN FRANCISCO,CA,94117,NOT AVAILABLE,(415) 661-9204,CENTER BASED,OPEN,24,SAN FRANCISCO,06075,USA,37.76271,-122.452,624410,CHILD DAY CARE CENTERS,https://data.chhs.ca.gov/dataset/bc819981-be52-4011-b3e5-b3fd09d4ea87/resource/cdf6928f-7cbe-49e8-b415-5422b357cfd3/download/ccl_locations_cc.csv,2022/05/17 00:00:00+00,IMAGERY/OTHER,2020/05/19 00:00:00+00,NOT AVAILABLE,DAY CARE CENTER
-13628411.1118064,4546265.68880309,10663,1222250774,HOLY FAMILY DAY HOME,299 DOLORES STREET,SAN FRANCISCO,CA,94103,NOT AVAILABLE,(415) 861-5361,CENTER BASED,OPEN,150,SAN FRANCISCO,06075,USA,37.76489,-122.4261,624410,CHILD DAY CARE CENTERS,https://data.chhs.ca.gov/dataset/bc819981-be52-4011-b3e5-b3fd09d4ea87/resource/cdf6928f-7cbe-49e8-b415-5422b357cfd3/download/ccl_locations_cc.csv,2022/05/17 00:00:00+00,IMAGERY,2019/03/11 00:00:00+00,NOT AVAILABLE,DAY CARE CENTER
-13633921.4266007,4541459.33279412,10664,1222256099,LAKESIDE PRESBYTERIAN CHURCH NURSERY SCHOOL,201 EUCALYPTUS DRIVE,SAN FRANCISCO,CA,94132,NOT AVAILABLE,(415) 564-5044,CENTER BASED,OPEN,75,SAN FRANCISCO,06075,USA,37.73075,-122.4756,624410,CHILD DAY CARE CENTERS,https://data.chhs.ca.gov/dataset/bc819981-be52-4011-b3e5-b3fd09d4ea87/resource/cdf6928f-7cbe-49e8-b415-5422b357cfd3/download/ccl_locations_cc.csv,2022/05/17 00:00:00+00,IMAGERY/OTHER,2020/05/19 00:00:00+00,NOT AVAILABLE,DAY CARE CENTER
-13631539.1894977,4548789.4208535,10665,1222263890,ONE FIFTY PARKER AVENUE NURSERY SCHOOL,150 PARKER AVE,SAN FRANCISCO,CA,94118,NOT AVAILABLE,(415) 221-0294,CENTER BASED,OPEN,35,SAN FRANCISCO,06075,USA,37.78281,-122.4542,624410,CHILD DAY CARE CENTERS,https://data.chhs.ca.gov/dataset/bc819981-be52-4011-b3e5-b3fd09d4ea87/resource/cdf6928f-7cbe-49e8-b415-5422b357cfd3/download/ccl_locations_cc.csv,2022/05/17 00:00:00+00,IMAGERY/OTHER,2020/05/19 00:00:00+00,NOT AVAILABLE,DAY CARE CENTER
-13630147.6958628,4547776.75622196,10666,1222264611,PACIFIC PRIMARY,1500 GROVE STREET,SAN FRANCISCO,CA,94117,NOT AVAILABLE,(415) 346-0906,CENTER BASED,OPEN,80,SAN FRANCISCO,06075,USA,37.77562,-122.4417,624410,CHILD DAY CARE CENTERS,https://data.chhs.ca.gov/dataset/bc819981-be52-4011-b3e5-b3fd09d4ea87/resource/cdf6928f-7cbe-49e8-b415-5422b357cfd3/download/ccl_locations_cc.csv,2022/05/17 00:00:00+00,IMAGERY,2019/03/12 00:00:00+00,NOT AVAILABLE,DAY CARE CENTER
-13628611.4868898,4548773.92732857,10667,1222265483,PHOEBE A. HEARST PRESCHOOL LEARNING CENTER,1315 ELLIS STREET,SAN FRANCISCO,CA,94115,NOT AVAILABLE,(415) 931-1018,CENTER BASED,OPEN,125,SAN FRANCISCO,06075,USA,37.7827,-122.4279,624410,CHILD DAY CARE CENTERS,https://data.chhs.ca.gov/dataset/bc819981-be52-4011-b3e5-b3fd09d4ea87/resource/cdf6928f-7cbe-49e8-b415-5422b357cfd3/download/ccl_locations_cc.csv,2022/05/17 00:00:00+00,IMAGERY,2019/03/14 00:00:00+00,NOT AVAILABLE,DAY CARE CENTER
-13626763.5833426,4541735.20889535,10668,1222269021,SAN FRANCISCO SCHOOL,300 GAVEN,SAN FRANCISCO,CA,94134,NOT AVAILABLE,(415) 239-5065,CENTER BASED,OPEN,90,SAN FRANCISCO,06075,USA,37.73271,-122.4113,624410,"CHILD DAY CARE, BEFORE OR AFTER SCHOOL, SEPARATE FROM SCHOOLS",https://data.chhs.ca.gov/dataset/bc819981-be52-4011-b3e5-b3fd09d4ea87/resource/cdf6928f-7cbe-49e8-b415-5422b357cfd3/download/ccl_locations_cc.csv,2022/05/17 00:00:00+00,IMAGERY,2019/03/20 00:00:00+00,NOT AVAILABLE,DAY CARE CENTER
-13632986.342878,4549092.25347092,10669,1222271719,ST. JAMES EPISCOPAL CHURCH NURSERY SCHOOL,4620 CALIFORNIA STREET,SAN FRANCISCO,CA,94118,NOT AVAILABLE,(415) 752-8258,CENTER BASED,OPEN,45,SAN FRANCISCO,06075,USA,37.78496,-122.4672,624410,CHILD DAY CARE CENTERS,https://data.chhs.ca.gov/dataset/bc819981-be52-4011-b3e5-b3fd09d4ea87/resource/cdf6928f-7cbe-49e8-b415-5422b357cfd3/download/ccl_locations_cc.csv,2022/05/17 00:00:00+00,IMAGERY/OTHER,2020/05/19 00:00:00+00,NOT AVAILABLE,DAY CARE CENTER
-13634823.1144761,4545215.25294662,10670,1222242205,CORNERSTONE ACADEMY,1925 LAWTON STREET,SAN FRANCISCO,CA,94122,NOT AVAILABLE,(415) 665-9747,CENTER BASED,OPEN,44,SAN FRANCISCO,06075,USA,37.75743,-122.4837,624410,CHILD DAY CARE CENTERS,https://data.chhs.ca.gov/dataset/bc819981-be52-4011-b3e5-b3fd09d4ea87/resource/cdf6928f-7cbe-49e8-b415-5422b357cfd3/download/ccl_locations_cc.csv,2022/05/17 00:00:00+00,IMAGERY/OTHER,2020/01/23 00:00:00+00,NOT AVAILABLE,DAY CARE CENTER
-13628143.9450285,4549111.97310965,10671,1222261228,MONTESSORI HOUSE OF CHILDREN,1187 FRANKLIN STREET,SAN FRANCISCO,CA,94109,NOT AVAILABLE,(415) 441-7691,CENTER BASED,OPEN,110,SAN FRANCISCO,06075,USA,37.7851,-122.4237,624410,CHILD DAY CARE CENTERS,https://data.chhs.ca.gov/dataset/bc819981-be52-4011-b3e5-b3fd09d4ea87/resource/cdf6928f-7cbe-49e8-b415-5422b357cfd3/download/ccl_locations_cc.csv,2022/05/17 00:00:00+00,IMAGERY/OTHER,2020/05/15 00:00:00+00,NOT AVAILABLE,DAY CARE CENTER
-13626106.798347,4542568.51166565,10672,1222236033,BIG CITY MONTESSORI SCHOOL,240 INDUSTRIAL STREET,SAN FRANCISCO,CA,94124,NOT AVAILABLE,(415) 648-5777,CENTER BASED,OPEN,100,SAN FRANCISCO,06075,USA,37.73863,-122.4054,624410,CHILD DAY CARE CENTERS,https://data.chhs.ca.gov/dataset/bc819981-be52-4011-b3e5-b3fd09d4ea87/resource/cdf6928f-7cbe-49e8-b415-5422b357cfd3/download/ccl_locations_cc.csv,2022/05/17 00:00:00+00,IMAGERY/OTHER,2020/05/20 00:00:00+00,NOT AVAILABLE,DAY CARE CENTER
-13627164.3335095,4547464.10359265,10673,1222258956,LOVE AND LEARN NURSERY SCHOOL,1419 HOWARD STREET,SAN FRANCISCO,CA,94103,NOT AVAILABLE,(415) 863-4059,CENTER BASED,OPEN,37,SAN FRANCISCO,06075,USA,37.7734,-122.4149,624410,CHILD DAY CARE CENTERS,https://data.chhs.ca.gov/dataset/bc819981-be52-4011-b3e5-b3fd09d4ea87/resource/cdf6928f-7cbe-49e8-b415-5422b357cfd3/download/ccl_locations_cc.csv,2022/05/17 00:00:00+00,IMAGERY/OTHER,2020/05/19 00:00:00+00,NOT AVAILABLE,DAY CARE CENTER
-13634856.5103233,4545222.2930488,10750,1222323799,CORNERSTONE ACADEMY,1943 LAWTON STREET,SAN FRANCISCO,CA,94122,NOT AVAILABLE,(415) 665-9747,CENTER BASED,OPEN,60,SAN FRANCISCO,06075,USA,37.75748,-122.484,624410,CHILD DAY CARE CENTERS,https://data.chhs.ca.gov/dataset/bc819981-be52-4011-b3e5-b3fd09d4ea87/resource/cdf6928f-7cbe-49e8-b415-5422b357cfd3/download/ccl_locations_cc.csv,2022/05/17 00:00:00+00,IMAGERY/OTHER,2020/11/05 00:00:00+00,NOT AVAILABLE,DAY CARE CENTER
-13628611.4868898,4541692.98248817,10751,1222280113,"YMCA OF SF., MISSION BRANCH, MISSION PRESCHOOL",4080 MISSION STREET,SAN FRANCISCO,CA,94112,NOT AVAILABLE,(415) 586-6900,CENTER BASED,OPEN,42,SAN FRANCISCO,06075,USA,37.73241,-122.4279,624410,CHILD DAY CARE CENTERS,https://data.chhs.ca.gov/dataset/bc819981-be52-4011-b3e5-b3fd09d4ea87/resource/cdf6928f-7cbe-49e8-b415-5422b357cfd3/download/ccl_locations_cc.csv,2022/05/17 00:00:00+00,IMAGERY/OTHER,2020/04/02 00:00:00+00,NOT AVAILABLE,DAY CARE CENTER
-13632151.446697,4549338.75164002,10752,1222261177,MONTESSORI CHILDREN'S HOUSE OF THE WEST COAST,25 LAKE STREET,SAN FRANCISCO,CA,94118,NOT AVAILABLE,(415) 221-4624,CENTER BASED,OPEN,60,SAN FRANCISCO,06075,USA,37.78671,-122.4597,624410,CHILD DAY CARE CENTERS,https://data.chhs.ca.gov/dataset/bc819981-be52-4011-b3e5-b3fd09d4ea87/resource/cdf6928f-7cbe-49e8-b415-5422b357cfd3/download/ccl_locations_cc.csv,2022/05/17 00:00:00+00,IMAGERY/OTHER,2020/01/10 00:00:00+00,NOT AVAILABLE,DAY CARE CENTER
-13628143.9450285,4545848.88120048,10753,1222237512,BUEN DIA FAMILY SCHOOL,589 GUERRERO ST.,SAN FRANCISCO,CA,94110,NOT AVAILABLE,(415) 431-3535,CENTER BASED,OPEN,30,SAN FRANCISCO,06075,USA,37.76193,-122.4237,624410,CHILD DAY CARE CENTERS,https://data.chhs.ca.gov/dataset/bc819981-be52-4011-b3e5-b3fd09d4ea87/resource/cdf6928f-7cbe-49e8-b415-5422b357cfd3/download/ccl_locations_cc.csv,2022/05/17 00:00:00+00,IMAGERY/OTHER,2020/05/15 00:00:00+00,NOT AVAILABLE,DAY CARE CENTER
-13636648.7541251,4543206.2022038,10754,1222265813,PLAYMATES COOPERATIVE NURSERY SCHOOL,2340 - 42ND AVENUE,SAN FRANCISCO,CA,94116,NOT AVAILABLE,(415) 681-2025,CENTER BASED,OPEN,49,SAN FRANCISCO,06075,USA,37.74316,-122.5001,624410,"CHILD DAY CARE, BEFORE OR AFTER SCHOOL, SEPARATE FROM SCHOOLS",https://data.chhs.ca.gov/dataset/bc819981-be52-4011-b3e5-b3fd09d4ea87/resource/cdf6928f-7cbe-49e8-b415-5422b357cfd3/download/ccl_locations_cc.csv,2022/05/17 00:00:00+00,IMAGERY,2019/03/12 00:00:00+00,NOT AVAILABLE,DAY CARE CENTER
-13629702.4178996,4546371.30148636,10755,1222268255,ROCKY MOUNTAIN PARTICIPATION NURSERY SCHOOL,2475 - 15TH STREET,SAN FRANCISCO,CA,94114,NOT AVAILABLE,(415) 552-2929,CENTER BASED,OPEN,20,SAN FRANCISCO,06075,USA,37.76564,-122.4377,624410,CHILD DAY CARE CENTERS,https://data.chhs.ca.gov/dataset/bc819981-be52-4011-b3e5-b3fd09d4ea87/resource/cdf6928f-7cbe-49e8-b415-5422b357cfd3/download/ccl_locations_cc.csv,2022/05/17 00:00:00+00,IMAGERY/OTHER,2020/01/10 00:00:00+00,NOT AVAILABLE,DAY CARE CENTER
-13628889.7856168,4546785.31353327,10758,1222247223,"FRIENDS OF ST. FRANCIS CHILDCARE CENTER, INC.",50 BELCHER STREET,SAN FRANCISCO,CA,94114,NOT AVAILABLE,(415) 861-1818,CENTER BASED,OPEN,38,SAN FRANCISCO,06075,USA,37.76858,-122.4304,624410,CHILD DAY CARE CENTERS,https://data.chhs.ca.gov/dataset/bc819981-be52-4011-b3e5-b3fd09d4ea87/resource/cdf6928f-7cbe-49e8-b415-5422b357cfd3/download/ccl_locations_cc.csv,2022/05/17 00:00:00+00,IMAGERY/OTHER,2020/05/20 00:00:00+00,NOT AVAILABLE,DAY CARE CENTER
-13632986.342878,4545329.30318771,10759,1222247793,GATES AND BRIDGES PRESCHOOL,1601 10TH AVENUE,SAN FRANCISCO,CA,94122,NOT AVAILABLE,(415) 664-3005,CENTER BASED,OPEN,16,SAN FRANCISCO,06075,USA,37.75824,-122.4672,624410,CHILD DAY CARE CENTERS,https://data.chhs.ca.gov/dataset/bc819981-be52-4011-b3e5-b3fd09d4ea87/resource/cdf6928f-7cbe-49e8-b415-5422b357cfd3/download/ccl_locations_cc.csv,2022/05/17 00:00:00+00,IMAGERY/OTHER,2020/01/10 00:00:00+00,NOT AVAILABLE,DAY CARE CENTER
-13626373.9651249,4550209.28902568,10762,1222276292,TRUE SUNSHINE PRESCHOOL CENTER,"777 STOCKTON ST, RM. 201",SAN FRANCISCO,CA,94108,NOT AVAILABLE,(415) 956-4207,CENTER BASED,OPEN,44,SAN FRANCISCO,06075,USA,37.79289,-122.4078,624410,CHILD DAY CARE CENTERS,https://data.chhs.ca.gov/dataset/bc819981-be52-4011-b3e5-b3fd09d4ea87/resource/cdf6928f-7cbe-49e8-b415-5422b357cfd3/download/ccl_locations_cc.csv,2022/05/17 00:00:00+00,IMAGERY/OTHER,2020/01/23 00:00:00+00,NOT AVAILABLE,DAY CARE CENTER
-13634132.9336332,4545837.61636163,10763,1222277681,WAH MEI SCHOOL,1400 JUDAH STREET,SAN FRANCISCO,CA,94122,NOT AVAILABLE,(415) 665-4212,CENTER BASED,OPEN,65,SAN FRANCISCO,06075,USA,37.76185,-122.4775,624410,CHILD DAY CARE CENTERS,https://data.chhs.ca.gov/dataset/bc819981-be52-4011-b3e5-b3fd09d4ea87/resource/cdf6928f-7cbe-49e8-b415-5422b357cfd3/download/ccl_locations_cc.csv,2022/05/17 00:00:00+00,IMAGERY/OTHER,2020/05/19 00:00:00+00,NOT AVAILABLE,DAY CARE CENTER
-13624270.0267489,4541981.5330138,10765,1222269924,SFUSD - LEOLA HAVARD EARLY EDUCATION SCHOOL (PS),1520 OAKDALE AVENUE,SAN FRANCISCO,CA,94124,NOT AVAILABLE,(415) 917-5865,CENTER BASED,OPEN,192,SAN FRANCISCO,06075,USA,37.73446,-122.3889,624410,CHILD DAY CARE CENTERS,https://data.chhs.ca.gov/dataset/bc819981-be52-4011-b3e5-b3fd09d4ea87/resource/cdf6928f-7cbe-49e8-b415-5422b357cfd3/download/ccl_locations_cc.csv,2022/05/17 00:00:00+00,IMAGERY,2019/03/13 00:00:00+00,NOT AVAILABLE,DAY CARE CENTER
-13627565.0836764,4544129.72612001,10766,1222269942,SFUSD - ZAIDA T. RODRIGUEZ (EES) PRESCHOOL,2950 MISSION STREET,SAN FRANCISCO,CA,94110,NOT AVAILABLE,(415) 695-5842,CENTER BASED,OPEN,60,SAN FRANCISCO,06075,USA,37.74972,-122.4185,624410,CHILD DAY CARE CENTERS,https://data.chhs.ca.gov/dataset/bc819981-be52-4011-b3e5-b3fd09d4ea87/resource/cdf6928f-7cbe-49e8-b415-5422b357cfd3/download/ccl_locations_cc.csv,2022/05/17 00:00:00+00,IMAGERY/OTHER,2020/04/02 00:00:00+00,NOT AVAILABLE,DAY CARE CENTER
-13629965.1318979,4543472.27005937,10767,1222330722,ST. NICHOLAS DAY CARE AND PRESCHOOL,5200 DIAMOND HEIGHTS BLVD.,SAN FRANCISCO,CA,94131,NOT AVAILABLE,(415) 550-1536,CENTER BASED,OPEN,70,SAN FRANCISCO,06075,USA,37.74505,-122.44006,624410,CHILD DAY CARE CENTERS,https://data.chhs.ca.gov/dataset/bc819981-be52-4011-b3e5-b3fd09d4ea87/resource/cdf6928f-7cbe-49e8-b415-5422b357cfd3/download/ccl_locations_cc.csv,2022/05/17 00:00:00+00,IMAGERY/OTHER,2022/06/02 00:00:00+00,NOT AVAILABLE,DAY CARE CENTER
-13631138.4393308,4546079.81308174,10768,1222269915,SFUSD - GRATTAN EARLY EDUCATION SCHOOL - PRESCHOOL,165 GRATTAN STREET,SAN FRANCISCO,CA,94117,NOT AVAILABLE,(415) 759-2850,CENTER BASED,OPEN,69,SAN FRANCISCO,06075,USA,37.76357,-122.4506,624410,"CHILD DAY CARE, BEFORE OR AFTER SCHOOL, SEPARATE FROM SCHOOLS",https://data.chhs.ca.gov/dataset/bc819981-be52-4011-b3e5-b3fd09d4ea87/resource/cdf6928f-7cbe-49e8-b415-5422b357cfd3/download/ccl_locations_cc.csv,2022/05/17 00:00:00+00,IMAGERY,2019/03/13 00:00:00+00,NOT AVAILABLE,DAY CARE CENTER
-13628834.1258714,4548806.32290701,10771,1222269931,SFUSD - RAPHAEL WEILL (EES) PRESCHOOL,1501 O'FARRELL STREET,SAN FRANCISCO,CA,94115,NOT AVAILABLE,(415) 749-3548,CENTER BASED,OPEN,60,SAN FRANCISCO,06075,USA,37.78293,-122.4299,624410,"CHILD DAY CARE, BEFORE OR AFTER SCHOOL, SEPARATE FROM SCHOOLS",https://data.chhs.ca.gov/dataset/bc819981-be52-4011-b3e5-b3fd09d4ea87/resource/cdf6928f-7cbe-49e8-b415-5422b357cfd3/download/ccl_locations_cc.csv,2022/05/17 00:00:00+00,IMAGERY/OTHER,2020/05/15 00:00:00+00,NOT AVAILABLE,DAY CARE CENTER
-13635591.2189626,4547690.84623076,10772,1222239094,CCFC - 31ST AVENUE,750 31ST AVENUE,SAN FRANCISCO,CA,94121,NOT AVAILABLE,(415) 668-7863,CENTER BASED,OPEN,43,SAN FRANCISCO,06075,USA,37.77501,-122.4906,624410,CHILD DAY CARE CENTERS,https://data.chhs.ca.gov/dataset/bc819981-be52-4011-b3e5-b3fd09d4ea87/resource/cdf6928f-7cbe-49e8-b415-5422b357cfd3/download/ccl_locations_cc.csv,2022/05/17 00:00:00+00,IMAGERY/OTHER,2020/01/16 00:00:00+00,NOT AVAILABLE,DAY CARE CENTER
-13629925.0568812,4549514.8253346,10773,1222269911,SFUSD - DR. WILLIAM COBB (EES) PRESCHOOL,2725 CALIFORNIA STREET,SAN FRANCISCO,CA,94115,NOT AVAILABLE,(415) 749-3505,CENTER BASED,OPEN,48,SAN FRANCISCO,06075,USA,37.78796,-122.4397,624410,"CHILD DAY CARE, BEFORE OR AFTER SCHOOL, SEPARATE FROM SCHOOLS",https://data.chhs.ca.gov/dataset/bc819981-be52-4011-b3e5-b3fd09d4ea87/resource/cdf6928f-7cbe-49e8-b415-5422b357cfd3/download/ccl_locations_cc.csv,2022/05/17 00:00:00+00,IMAGERY,2020/05/15 00:00:00+00,NOT AVAILABLE,DAY CARE CENTER
-13634778.5866798,4545899.57312603,10776,1222269916,SFUSD - JEFFERSON EARLY EDUCATION SCHOOL - PRESCHOOL,1350 - 25TH AVENUE,SAN FRANCISCO,CA,94122,NOT AVAILABLE,(415) 759-2852,CENTER BASED,OPEN,56,SAN FRANCISCO,06075,USA,37.76229,-122.4833,624410,CHILD DAY CARE CENTERS,https://data.chhs.ca.gov/dataset/bc819981-be52-4011-b3e5-b3fd09d4ea87/resource/cdf6928f-7cbe-49e8-b415-5422b357cfd3/download/ccl_locations_cc.csv,2022/05/17 00:00:00+00,IMAGERY,2019/03/13 00:00:00+00,NOT AVAILABLE,DAY CARE CENTER
-13628143.9450285,4539038.69237387,10778,1222269945,SFUSD JOHN MCLAREN EARLY ED. SCHOOL (PRESCHOOL),2055 SUNNYDALE AVENUE,SAN FRANCISCO,CA,94134,NOT AVAILABLE,(415) 469-4519,CENTER BASED,OPEN,96,SAN FRANCISCO,06075,USA,37.71355,-122.4237,624410,CHILD DAY CARE CENTERS,https://data.chhs.ca.gov/dataset/bc819981-be52-4011-b3e5-b3fd09d4ea87/resource/cdf6928f-7cbe-49e8-b415-5422b357cfd3/download/ccl_locations_cc.csv,2022/05/17 00:00:00+00,IMAGERY,2019/04/04 00:00:00+00,NOT AVAILABLE,DAY CARE CENTER
-13628010.3616395,4542548.80441194,10779,1222269921,SFUSD - JUNIPERO SERRA EARLY EDUCATION SCHOOL (PS),155 APPLETON STREET,SAN FRANCISCO,CA,94110,NOT AVAILABLE,(415) 920-5138,CENTER BASED,OPEN,67,SAN FRANCISCO,06075,USA,37.73849,-122.4225,624410,"CHILD DAY CARE, BEFORE OR AFTER SCHOOL, SEPARATE FROM SCHOOLS",https://data.chhs.ca.gov/dataset/bc819981-be52-4011-b3e5-b3fd09d4ea87/resource/cdf6928f-7cbe-49e8-b415-5422b357cfd3/download/ccl_locations_cc.csv,2022/05/17 00:00:00+00,IMAGERY/OTHER,2019/11/04 00:00:00+00,NOT AVAILABLE,DAY CARE CENTER
-13632129.1827989,4549041.546,10780,1222252025,JCCSF LOISE AND CLAUDE ROSENBERG EARLY CHILDHOOD CTR,325 ARGUELLO BLVD.,SAN FRANCISCO,CA,94118,NOT AVAILABLE,(415) 386-4999,CENTER BASED,OPEN,59,SAN FRANCISCO,06075,USA,37.7846,-122.4595,624410,CHILD DAY CARE CENTERS,https://data.chhs.ca.gov/dataset/bc819981-be52-4011-b3e5-b3fd09d4ea87/resource/cdf6928f-7cbe-49e8-b415-5422b357cfd3/download/ccl_locations_cc.csv,2022/05/17 00:00:00+00,IMAGERY/OTHER,2020/04/02 00:00:00+00,NOT AVAILABLE,DAY CARE CENTER
-13636726.6777686,4542481.23696789,10781,1222234628,"ARK CHRISTIAN PRESCHOOL, THE",3141 VICENTE STREET,SAN FRANCISCO,CA,94116,NOT AVAILABLE,(415) 731-0912,RELIGIOUS FACILITY,OPEN,70,SAN FRANCISCO,06075,USA,37.73801,-122.5008,624410,CHILD DAY CARE CENTERS,https://data.chhs.ca.gov/dataset/bc819981-be52-4011-b3e5-b3fd09d4ea87/resource/cdf6928f-7cbe-49e8-b415-5422b357cfd3/download/ccl_locations_cc.csv,2022/05/17 00:00:00+00,IMAGERY,2019/02/22 00:00:00+00,NOT AVAILABLE,DAY CARE CENTER
-13629424.1191726,4548572.51360265,10782,1222239099,CCFC - EDDY,1672 EDDY STREET,SAN FRANCISCO,CA,94115,NOT AVAILABLE,(415) 567-9126,CENTER BASED,OPEN,50,SAN FRANCISCO,06075,USA,37.78127,-122.4352,624410,CHILD DAY CARE CENTERS,https://data.chhs.ca.gov/dataset/bc819981-be52-4011-b3e5-b3fd09d4ea87/resource/cdf6928f-7cbe-49e8-b415-5422b357cfd3/download/ccl_locations_cc.csv,2022/05/17 00:00:00+00,IMAGERY/OTHER,2020/01/17 00:00:00+00,NOT AVAILABLE,DAY CARE CENTER
-13628912.049515,4549350.02026727,10783,1222262930,NIHONMACHI LITTLE FRIENDS SUTTER SITE,1830 SUTTER STREET,SAN FRANCISCO,CA,94115,NOT AVAILABLE,(415) 922-4060,CENTER BASED,OPEN,91,SAN FRANCISCO,06075,USA,37.78679,-122.4306,624410,CHILD DAY CARE CENTERS,https://data.chhs.ca.gov/dataset/bc819981-be52-4011-b3e5-b3fd09d4ea87/resource/cdf6928f-7cbe-49e8-b415-5422b357cfd3/download/ccl_locations_cc.csv,2022/05/17 00:00:00+00,IMAGERY/OTHER,2020/03/27 00:00:00+00,NOT AVAILABLE,DAY CARE CENTER
-13631383.3422106,4548942.94884695,10784,1222256323,LAUREL HILL NURSERY SCHOOL,401 EUCLID AVENUE,SAN FRANCISCO,CA,94118,NOT AVAILABLE,(415) 751-8784,CENTER BASED,OPEN,59,SAN FRANCISCO,06075,USA,37.7839,-122.4528,624410,CHILD DAY CARE CENTERS,https://data.chhs.ca.gov/dataset/bc819981-be52-4011-b3e5-b3fd09d4ea87/resource/cdf6928f-7cbe-49e8-b415-5422b357cfd3/download/ccl_locations_cc.csv,2022/05/17 00:00:00+00,IMAGERY/OTHER,2020/05/19 00:00:00+00,NOT AVAILABLE,DAY CARE CENTER
-13626897.1667316,4551695.56885544,10785,1222322867,TELEGRAPH HILL NURSERY SCHOOLS,660 LOMBARD STREET,SAN FRANCISCO,CA,94133,NOT AVAILABLE,(415) 421-6443,CENTER BASED,OPEN,87,SAN FRANCISCO,06075,USA,37.80344,-122.4125,624410,CHILD DAY CARE CENTERS,https://data.chhs.ca.gov/dataset/bc819981-be52-4011-b3e5-b3fd09d4ea87/resource/cdf6928f-7cbe-49e8-b415-5422b357cfd3/download/ccl_locations_cc.csv,2022/05/17 00:00:00+00,IMAGERY/OTHER,2020/11/07 00:00:00+00,NOT AVAILABLE,DAY CARE CENTER
-13634191.9329633,4540064.72195825,10786,1222234818,ASSOCIATED STUDENTS CHILDREN'S CENTER - PRESCHOOL,1650 HOLLOWAY AVENUE,SAN FRANCISCO,CA,94132,NOT AVAILABLE,(415) 338-2403,CENTER BASED,OPEN,60,SAN FRANCISCO,06075,USA,37.720841,-122.47803,624410,CHILD DAY CARE CENTERS,https://data.chhs.ca.gov/dataset/bc819981-be52-4011-b3e5-b3fd09d4ea87/resource/cdf6928f-7cbe-49e8-b415-5422b357cfd3/download/ccl_locations_cc.csv,2022/05/17 00:00:00+00,IMAGERY,2019/02/22 00:00:00+00,NOT AVAILABLE,DAY CARE CENTER
-13626518.6804629,4550333.25496399,10787,1222240901,CHINATOWN COMMUNITY CHILDREN'S CENTER,979 CLAY STREET,SAN FRANCISCO,CA,94108,NOT AVAILABLE,(415) 986-2528,CENTER BASED,OPEN,60,SAN FRANCISCO,06075,USA,37.79377,-122.4091,624410,CHILD DAY CARE CENTERS,https://data.chhs.ca.gov/dataset/bc819981-be52-4011-b3e5-b3fd09d4ea87/resource/cdf6928f-7cbe-49e8-b415-5422b357cfd3/download/ccl_locations_cc.csv,2022/05/17 00:00:00+00,IMAGERY,2019/03/13 00:00:00+00,NOT AVAILABLE,DAY CARE CENTER
-13635535.5592172,4547706.338144,10788,1222239096,CCFC - 30TH AVENUE,741 30TH AVENUE,SAN FRANCISCO,CA,94121,NOT AVAILABLE,(415) 668-6539,CENTER BASED,OPEN,29,SAN FRANCISCO,06075,USA,37.77512,-122.4901,624410,CHILD DAY CARE CENTERS,https://data.chhs.ca.gov/dataset/bc819981-be52-4011-b3e5-b3fd09d4ea87/resource/cdf6928f-7cbe-49e8-b415-5422b357cfd3/download/ccl_locations_cc.csv,2022/05/17 00:00:00+00,IMAGERY/OTHER,2020/01/15 00:00:00+00,NOT AVAILABLE,DAY CARE CENTER
-13630971.4600946,4541663.42410494,11668,1222260836,MIRALOMA NURSERY SCHOOL,443 FOERSTER STREET,SAN FRANCISCO,CA,94127,NOT AVAILABLE,(415) 585-6789,CENTER BASED,OPEN,22,SAN FRANCISCO,06075,USA,37.7322,-122.4491,624410,CHILD DAY CARE CENTERS,https://data.chhs.ca.gov/dataset/bc819981-be52-4011-b3e5-b3fd09d4ea87/resource/cdf6928f-7cbe-49e8-b415-5422b357cfd3/download/ccl_locations_cc.csv,2022/05/17 00:00:00+00,IMAGERY/OTHER,2020/05/15 00:00:00+00,NOT AVAILABLE,DAY CARE CENTER
-13627932.437996,4544628.12517036,11694,1222266314,"PRESCHOOL, THE",102 SAN JOSE AVENUE,SAN FRANCISCO,CA,94110,NOT AVAILABLE,(415) 285-5327,CENTER BASED,OPEN,15,SAN FRANCISCO,06075,USA,37.75326,-122.4218,624410,CHILD DAY CARE CENTERS,https://data.chhs.ca.gov/dataset/bc819981-be52-4011-b3e5-b3fd09d4ea87/resource/cdf6928f-7cbe-49e8-b415-5422b357cfd3/download/ccl_locations_cc.csv,2022/05/17 00:00:00+00,IMAGERY,2019/03/15 00:00:00+00,NOT AVAILABLE,DAY CARE CENTER
-13628000.8883509,4544144.88892589,11722,1222330823,KATHERINE MICHIELS SCHOOL (PRE - K),1335 GUERRERO,SAN FRANCISCO,CA,94110,NOT AVAILABLE,(415) 821-0130,CENTER BASED,OPEN,36,SAN FRANCISCO,06075,USA,37.7498277,-122.4224149,624410,CHILD DAY CARE CENTERS,https://data.chhs.ca.gov/dataset/bc819981-be52-4011-b3e5-b3fd09d4ea87/resource/cdf6928f-7cbe-49e8-b415-5422b357cfd3/download/ccl_locations_cc.csv,2022/05/17 00:00:00+00,IMAGERY/OTHER,2022/06/02 00:00:00+00,NOT AVAILABLE,DAY CARE CENTER
-13637227.6154772,4545077.26790453,11728,1222254033,KIDS KOLLEGE PRESCHOOL DAY CARE,3939 LAWTON STREET,SAN FRANCISCO,CA,94122,NOT AVAILABLE,(415) 753-1869,CENTER BASED,OPEN,60,SAN FRANCISCO,06075,USA,37.75645,-122.5053,624410,CHILD DAY CARE CENTERS,https://data.chhs.ca.gov/dataset/bc819981-be52-4011-b3e5-b3fd09d4ea87/resource/cdf6928f-7cbe-49e8-b415-5422b357cfd3/download/ccl_locations_cc.csv,2022/05/17 00:00:00+00,IMAGERY/OTHER,2020/04/02 00:00:00+00,NOT AVAILABLE,DAY CARE CENTER
-13630437.1265388,4540129.31833917,11766,1222269933,SFUSD - SAN MIGUEL EARLY EDUCATION SCHOOL (PS),300 SENECA AVENUE,SAN FRANCISCO,CA,94112,NOT AVAILABLE,(415) 469-4756,CENTER BASED,OPEN,102,SAN FRANCISCO,06075,USA,37.7213,-122.4443,624410,CHILD DAY CARE CENTERS,https://data.chhs.ca.gov/dataset/bc819981-be52-4011-b3e5-b3fd09d4ea87/resource/cdf6928f-7cbe-49e8-b415-5422b357cfd3/download/ccl_locations_cc.csv,2022/05/17 00:00:00+00,IMAGERY,2019/04/02 00:00:00+00,NOT AVAILABLE,DAY CARE CENTER
-13634221.9892258,4539083.72241379,11797,1222255546,KROUZIAN - ZEKARIAN - VASBOURAGAN ARMENIAN PRESCHOOL,825 BROTHERHOOD WAY,SAN FRANCISCO,CA,94132,NOT AVAILABLE,(415) 586-8686,CENTER BASED,OPEN,42,SAN FRANCISCO,06075,USA,37.71387,-122.4783,624410,CHILD DAY CARE CENTERS,https://data.chhs.ca.gov/dataset/bc819981-be52-4011-b3e5-b3fd09d4ea87/resource/cdf6928f-7cbe-49e8-b415-5422b357cfd3/download/ccl_locations_cc.csv,2022/05/17 00:00:00+00,IMAGERY,2019/03/11 00:00:00+00,NOT AVAILABLE,DAY CARE CENTER
-13637049.5042919,4544667.54758177,11825,1222327930,SFUSD - NORIEGA EARLY EDUCATION SCHOOL (PS),1775 - 44TH AVENUE,SAN FRANCISCO,CA,94122,NOT AVAILABLE,(415) 759-2853,CENTER BASED,OPEN,136,SAN FRANCISCO,06075,USA,37.75354,-122.5037,624410,CHILD DAY CARE CENTERS,https://data.chhs.ca.gov/dataset/bc819981-be52-4011-b3e5-b3fd09d4ea87/resource/cdf6928f-7cbe-49e8-b415-5422b357cfd3/download/ccl_locations_cc.csv,2022/05/17 00:00:00+00,IMAGERY,2020/10/02 00:00:00+00,NOT AVAILABLE,DAY CARE CENTER
-13633420.4888921,4547676.76269326,11833,1222248630,GRACE FOUNTAIN DAY CARE CENTER,1145 CABRILLO STREET,SAN FRANCISCO,CA,94118,NOT AVAILABLE,(415) 668-0188,CENTER BASED,OPEN,36,SAN FRANCISCO,06075,USA,37.77491,-122.4711,624410,CHILD DAY CARE CENTERS,https://data.chhs.ca.gov/dataset/bc819981-be52-4011-b3e5-b3fd09d4ea87/resource/cdf6928f-7cbe-49e8-b415-5422b357cfd3/download/ccl_locations_cc.csv,2022/05/17 00:00:00+00,IMAGERY,2020/04/02 00:00:00+00,NOT AVAILABLE,DAY CARE CENTER
-13626585.4721574,4551426.47307349,11879,1222272698,STS. PETER AND PAUL LAURA VICUNA PRE - KINDERGARTEN,666 FILBERT STREET,SAN FRANCISCO,CA,94133,NOT AVAILABLE,(415) 296-8549,CENTER BASED,OPEN,42,SAN FRANCISCO,06075,USA,37.80153,-122.4097,624410,CHILD DAY CARE CENTERS,https://data.chhs.ca.gov/dataset/bc819981-be52-4011-b3e5-b3fd09d4ea87/resource/cdf6928f-7cbe-49e8-b415-5422b357cfd3/download/ccl_locations_cc.csv,2022/05/17 00:00:00+00,IMAGERY,2019/04/04 00:00:00+00,NOT AVAILABLE,DAY CARE CENTER
-13624336.8184434,4539725.4216151,11881,1222269906,SFUSD - BRET HARTE (EES) PRESCHOOL,950 HOLLISTER AVENUE,SAN FRANCISCO,CA,94124,NOT AVAILABLE,(415) 379-2700,CENTER BASED,OPEN,60,SAN FRANCISCO,06075,USA,37.71843,-122.3895,624410,CHILD DAY CARE CENTERS,https://data.chhs.ca.gov/dataset/bc819981-be52-4011-b3e5-b3fd09d4ea87/resource/cdf6928f-7cbe-49e8-b415-5422b357cfd3/download/ccl_locations_cc.csv,2022/05/17 00:00:00+00,IMAGERY,2019/03/13 00:00:00+00,NOT AVAILABLE,DAY CARE CENTER
-13627620.7434218,4541304.50756899,11902,1222242207,CORNERSTONE ACADEMY,801 SILVER AVENUE,SAN FRANCISCO,CA,94134,NOT AVAILABLE,(415) 587-7256,CENTER BASED,OPEN,378,SAN FRANCISCO,06075,USA,37.72965,-122.419,624410,"CHILD DAY CARE, BEFORE OR AFTER SCHOOL, SEPARATE FROM SCHOOLS",https://data.chhs.ca.gov/dataset/bc819981-be52-4011-b3e5-b3fd09d4ea87/resource/cdf6928f-7cbe-49e8-b415-5422b357cfd3/download/ccl_locations_cc.csv,2022/05/17 00:00:00+00,IMAGERY/OTHER,2020/05/21 00:00:00+00,NOT AVAILABLE,DAY CARE CENTER
-13626540.9443611,4550298.03721773,11982,1222252709,KAI MING HEAD START - DR. T. KONG LEE CENTER,950 POWELL STREET,SAN FRANCISCO,CA,94108,NOT AVAILABLE,(415) 982-4777,HEAD START,OPEN,20,SAN FRANCISCO,06075,USA,37.79352,-122.4093,624410,"HEAD START PROGRAMS, SEPARATE FROM SCHOOLS",https://data.chhs.ca.gov/dataset/bc819981-be52-4011-b3e5-b3fd09d4ea87/resource/cdf6928f-7cbe-49e8-b415-5422b357cfd3/download/ccl_locations_cc.csv,2022/05/17 00:00:00+00,IMAGERY,2019/03/13 00:00:00+00,NOT AVAILABLE,DAY CARE CENTER
-13626529.812412,4544232.50137382,12004,1222246033,FAMILY DEVELOPMENTAL CENTER (PRESCHOOL),2730 BRYANT STREET,SAN FRANCISCO,CA,94110,NOT AVAILABLE,(415) 282-1090,CENTER BASED,OPEN,83,SAN FRANCISCO,06075,USA,37.75045,-122.4092,624410,CHILD DAY CARE CENTERS,https://data.chhs.ca.gov/dataset/bc819981-be52-4011-b3e5-b3fd09d4ea87/resource/cdf6928f-7cbe-49e8-b415-5422b357cfd3/download/ccl_locations_cc.csv,2022/05/17 00:00:00+00,IMAGERY/OTHER,2020/01/16 00:00:00+00,NOT AVAILABLE,DAY CARE CENTER
-13625928.6871617,4550992.55317177,12124,1222279162,WU YEE CHILDREN'S SERVICES - GENERATIONS CDC,1010 MONTGOMERY STREET,SAN FRANCISCO,CA,94133,NOT AVAILABLE,(415) 529-1345,CENTER BASED,OPEN,23,SAN FRANCISCO,06075,USA,37.79845,-122.4038,624410,"HEAD START PROGRAMS, SEPARATE FROM SCHOOLS",https://data.chhs.ca.gov/dataset/bc819981-be52-4011-b3e5-b3fd09d4ea87/resource/cdf6928f-7cbe-49e8-b415-5422b357cfd3/download/ccl_locations_cc.csv,2022/05/17 00:00:00+00,IMAGERY/OTHER,2019/12/19 00:00:00+00,NOT AVAILABLE,DAY CARE CENTER
-13634500.2879528,4543261.10453829,12203,1222267243,RAINBOW MONTESSORI,2358 24TH AVENUE,SAN FRANCISCO,CA,94116,NOT AVAILABLE,(415) 661-9100,CENTER BASED,OPEN,18,SAN FRANCISCO,06075,USA,37.74355,-122.4808,624410,CHILD DAY CARE CENTERS,https://data.chhs.ca.gov/dataset/bc819981-be52-4011-b3e5-b3fd09d4ea87/resource/cdf6928f-7cbe-49e8-b415-5422b357cfd3/download/ccl_locations_cc.csv,2022/05/17 00:00:00+00,IMAGERY/OTHER,2019/12/20 00:00:00+00,NOT AVAILABLE,DAY CARE CENTER
-13629197.1387309,4548578.28834753,12218,1222330911,"MONTESSORI SCHOOL OF THE BAY AREA, INC.",1550 EDDY STREET,SAN FRANCISCO,CA,94115,NOT AVAILABLE,(415) 292-7970,CENTER BASED,OPEN,48,SAN FRANCISCO,06075,USA,37.781311,-122.433161,624410,CHILD DAY CARE CENTERS,https://data.chhs.ca.gov/dataset/bc819981-be52-4011-b3e5-b3fd09d4ea87/resource/cdf6928f-7cbe-49e8-b415-5422b357cfd3/download/ccl_locations_cc.csv,2022/05/17 00:00:00+00,GEOCODE,2022/06/02 00:00:00+00,NOT AVAILABLE,DAY CARE CENTER
-13626017.7427543,4544390.18592613,12227,1222269907,SFUSD - BRYANT EARLY EDUCATION SCHOOL,2641 - 25TH STREET,SAN FRANCISCO,CA,94110,NOT AVAILABLE,(415) 695-5838,CENTER BASED,OPEN,69,SAN FRANCISCO,06075,USA,37.75157,-122.4046,624410,"CHILD DAY CARE, BEFORE OR AFTER SCHOOL, SEPARATE FROM SCHOOLS",https://data.chhs.ca.gov/dataset/bc819981-be52-4011-b3e5-b3fd09d4ea87/resource/cdf6928f-7cbe-49e8-b415-5422b357cfd3/download/ccl_locations_cc.csv,2022/05/17 00:00:00+00,IMAGERY,2019/03/13 00:00:00+00,NOT AVAILABLE,DAY CARE CENTER
-13627186.5974077,4544854.8060734,12228,1222269908,SFUSD - CESAR CHAVEZ EARLY EDUCATION SCHOOL (PS),825 SHOTWELL STREET,SAN FRANCISCO,CA,94110,NOT AVAILABLE,(415) 695-5946,CENTER BASED,OPEN,24,SAN FRANCISCO,06075,USA,37.75487,-122.4151,624410,CHILD DAY CARE CENTERS,https://data.chhs.ca.gov/dataset/bc819981-be52-4011-b3e5-b3fd09d4ea87/resource/cdf6928f-7cbe-49e8-b415-5422b357cfd3/download/ccl_locations_cc.csv,2022/05/17 00:00:00+00,IMAGERY/OTHER,2019/03/13 00:00:00+00,NOT AVAILABLE,DAY CARE CENTER
-13629635.6262051,4540253.16437183,12282,1222260902,"MISSION CHILDCARE CONSORTIUM, INC.",4750 MISSION STREET,SAN FRANCISCO,CA,94112,NOT AVAILABLE,(415) 586-6139,CENTER BASED,OPEN,224,SAN FRANCISCO,06075,USA,37.72218,-122.4371,624410,CHILD DAY CARE CENTERS,https://data.chhs.ca.gov/dataset/bc819981-be52-4011-b3e5-b3fd09d4ea87/resource/cdf6928f-7cbe-49e8-b415-5422b357cfd3/download/ccl_locations_cc.csv,2022/05/17 00:00:00+00,IMAGERY/OTHER,2020/04/02 00:00:00+00,NOT AVAILABLE,DAY CARE CENTER
-13628900.9175659,4546096.71073751,12396,1222269934,SFUSD - SANCHEZ EARLY EDUCATION SCHOOL (PS),325 SANCHEZ STREET,SAN FRANCISCO,CA,94114,NOT AVAILABLE,(415) 241-6380,CENTER BASED,OPEN,40,SAN FRANCISCO,06075,USA,37.76369,-122.4305,624410,"CHILD DAY CARE, BEFORE OR AFTER SCHOOL, SEPARATE FROM SCHOOLS",https://data.chhs.ca.gov/dataset/bc819981-be52-4011-b3e5-b3fd09d4ea87/resource/cdf6928f-7cbe-49e8-b415-5422b357cfd3/download/ccl_locations_cc.csv,2022/05/17 00:00:00+00,IMAGERY/OTHER,2020/04/02 00:00:00+00,NOT AVAILABLE,DAY CARE CENTER
-13626351.7012267,4540997.67891794,12397,1222269912,SFUSD - E.R. TAYLOR (EES) PRESCHOOL,"423 BURROWS, BUNGALOWS 1 AND 2",SAN FRANCISCO,CA,94134,NOT AVAILABLE,(415) 330-1530,CENTER BASED,OPEN,34,SAN FRANCISCO,06075,USA,37.72747,-122.4076,624410,CHILD DAY CARE CENTERS,https://data.chhs.ca.gov/dataset/bc819981-be52-4011-b3e5-b3fd09d4ea87/resource/cdf6928f-7cbe-49e8-b415-5422b357cfd3/download/ccl_locations_cc.csv,2022/05/17 00:00:00+00,IMAGERY,2019/03/13 00:00:00+00,NOT AVAILABLE,DAY CARE CENTER
-13628740.0609017,4547541.84336949,12398,1222269918,SFUSD - JOHN MUIR ECIA (EES) PRESCHOOL,380 WEBSTER STREET,SAN FRANCISCO,CA,94117,NOT AVAILABLE,(415) 241-6339,CENTER BASED,OPEN,36,SAN FRANCISCO,06075,USA,37.773952,-122.429055,624410,CHILD DAY CARE CENTERS,https://data.chhs.ca.gov/dataset/bc819981-be52-4011-b3e5-b3fd09d4ea87/resource/cdf6928f-7cbe-49e8-b415-5422b357cfd3/download/ccl_locations_cc.csv,2022/05/17 00:00:00+00,IMAGERY,2019/03/13 00:00:00+00,NOT AVAILABLE,DAY CARE CENTER
-13627008.4862224,4548645.75450667,12631,1222279160,WU YEE CHILDREN'S SERVICES - PRESCHOOL,177 GOLDEN GATE AVENUE,SAN FRANCISCO,CA,94102,NOT AVAILABLE,(415) 321-3855,CENTER BASED,OPEN,32,SAN FRANCISCO,06075,USA,37.78179,-122.4135,624410,"HEAD START PROGRAMS, SEPARATE FROM SCHOOLS",https://data.chhs.ca.gov/dataset/bc819981-be52-4011-b3e5-b3fd09d4ea87/resource/cdf6928f-7cbe-49e8-b415-5422b357cfd3/download/ccl_locations_cc.csv,2022/05/17 00:00:00+00,IMAGERY/OTHER,2020/01/10 00:00:00+00,NOT AVAILABLE,DAY CARE CENTER
-13631329.7975355,4540501.70528108,12711,1222269901,SFCCD OCEAN CAMPUS CHILD DEVELOPMENT LAB SCHOOL,50 PHELAN AVENUE,SAN FRANCISCO,CA,94112,NOT AVAILABLE,(415) 239-3462,CENTER BASED,OPEN,66,SAN FRANCISCO,06075,USA,37.723946,-122.452319,624410,CHILD DAY CARE CENTERS,https://data.chhs.ca.gov/dataset/bc819981-be52-4011-b3e5-b3fd09d4ea87/resource/cdf6928f-7cbe-49e8-b415-5422b357cfd3/download/ccl_locations_cc.csv,2022/05/17 00:00:00+00,IMAGERY,2020/01/10 00:00:00+00,NOT AVAILABLE,DAY CARE CENTER
-13627976.9657923,4546341.72982708,12730,1222241978,"COMPANEROS DEL BARRIO, INC.",474 - 478 VALENCIA STREET,SAN FRANCISCO,CA,94103,NOT AVAILABLE,(415) 431-9925,CENTER BASED,OPEN,44,SAN FRANCISCO,06075,USA,37.76543,-122.4222,624410,CHILD DAY CARE CENTERS,https://data.chhs.ca.gov/dataset/bc819981-be52-4011-b3e5-b3fd09d4ea87/resource/cdf6928f-7cbe-49e8-b415-5422b357cfd3/download/ccl_locations_cc.csv,2022/05/17 00:00:00+00,IMAGERY/OTHER,2019/11/15 00:00:00+00,NOT AVAILABLE,DAY CARE CENTER
-13637040.7100522,4548554.34430431,12882,1222256166,"LAND'S END SCHOOL - PRESCHOOL, THE",4150 CLEMENT ST BUILDING T - 35,SAN FRANCISCO,CA,94121,NOT AVAILABLE,(415) 751-8511,CENTER BASED,OPEN,30,SAN FRANCISCO,06075,USA,37.781141,-122.503621,624410,CHILD DAY CARE CENTERS,https://data.chhs.ca.gov/dataset/bc819981-be52-4011-b3e5-b3fd09d4ea87/resource/cdf6928f-7cbe-49e8-b415-5422b357cfd3/download/ccl_locations_cc.csv,2022/05/17 00:00:00+00,IMAGERY,2019/03/11 00:00:00+00,NOT AVAILABLE,DAY CARE CENTER
-13632752.5719473,4543124.55311315,12887,1222259763,MARIA MONTESSORI SCHOOL OF THE GOLDEN GATE,62 LENOX WAY,SAN FRANCISCO,CA,94127,NOT AVAILABLE,(415) 731-8188,CENTER BASED,OPEN,24,SAN FRANCISCO,06075,USA,37.74258,-122.4651,624410,CHILD DAY CARE CENTERS,https://data.chhs.ca.gov/dataset/bc819981-be52-4011-b3e5-b3fd09d4ea87/resource/cdf6928f-7cbe-49e8-b415-5422b357cfd3/download/ccl_locations_cc.csv,2022/05/17 00:00:00+00,IMAGERY,2019/03/13 00:00:00+00,NOT AVAILABLE,DAY CARE CENTER
-13626997.3542733,4548772.51882745,12976,1222239101,CCFC - TURK,259 TURK STREET,SAN FRANCISCO,CA,94102,NOT AVAILABLE,(415) 321-0648,CENTER BASED,OPEN,53,SAN FRANCISCO,06075,USA,37.78269,-122.4134,624410,CHILD DAY CARE CENTERS,https://data.chhs.ca.gov/dataset/bc819981-be52-4011-b3e5-b3fd09d4ea87/resource/cdf6928f-7cbe-49e8-b415-5422b357cfd3/download/ccl_locations_cc.csv,2022/05/17 00:00:00+00,IMAGERY,2019/02/22 00:00:00+00,NOT AVAILABLE,DAY CARE CENTER
-13628633.750788,4544930.83679776,12993,1222269939,SFUSD - THERESA S. MAHLER (EES) PRESCHOOL,990 CHURCH STREET,SAN FRANCISCO,CA,94114,NOT AVAILABLE,(415) 695-5871,CENTER BASED,OPEN,80,SAN FRANCISCO,06075,USA,37.75541,-122.4281,624410,CHILD DAY CARE CENTERS,https://data.chhs.ca.gov/dataset/bc819981-be52-4011-b3e5-b3fd09d4ea87/resource/cdf6928f-7cbe-49e8-b415-5422b357cfd3/download/ccl_locations_cc.csv,2022/05/17 00:00:00+00,IMAGERY/OTHER,2020/05/15 00:00:00+00,NOT AVAILABLE,DAY CARE CENTER
-13628555.8271444,4543355.42460885,13052,1222272023,ST. PAUL'S CHURCH - LITTLEST ANGEL PREPARATORY PRESC,"221 VALLEY STREET, ROOM X",SAN FRANCISCO,CA,94131,NOT AVAILABLE,(415) 824-5437,CENTER BASED,OPEN,38,SAN FRANCISCO,06075,USA,37.74422,-122.4274,624410,CHILD DAY CARE CENTERS,https://data.chhs.ca.gov/dataset/bc819981-be52-4011-b3e5-b3fd09d4ea87/resource/cdf6928f-7cbe-49e8-b415-5422b357cfd3/download/ccl_locations_cc.csv,2022/05/17 00:00:00+00,IMAGERY/OTHER,2020/01/23 00:00:00+00,NOT AVAILABLE,DAY CARE CENTER
-13625672.6523329,4540362.93822172,13139,1222239903,CHILD'S TIME,3061 SAN BRUNO AVENUE,SAN FRANCISCO,CA,94134,NOT AVAILABLE,(415) 656-0380,CENTER BASED,OPEN,22,SAN FRANCISCO,06075,USA,37.72296,-122.4015,624410,CHILD DAY CARE CENTERS,https://data.chhs.ca.gov/dataset/bc819981-be52-4011-b3e5-b3fd09d4ea87/resource/cdf6928f-7cbe-49e8-b415-5422b357cfd3/download/ccl_locations_cc.csv,2022/05/17 00:00:00+00,IMAGERY/OTHER,2020/05/20 00:00:00+00,NOT AVAILABLE,DAY CARE CENTER
-13628077.153334,4547519.02837481,13165,1222322951,HELEN HAWK CHILDREN'S CENTER - PRESCHOOL,111 PAGE STREET,SAN FRANCISCO,CA,94102,NOT AVAILABLE,(415) 863-0681,CENTER BASED,OPEN,9,SAN FRANCISCO,06075,USA,37.77379,-122.4231,624410,CHILD DAY CARE CENTERS,https://data.chhs.ca.gov/dataset/bc819981-be52-4011-b3e5-b3fd09d4ea87/resource/cdf6928f-7cbe-49e8-b415-5422b357cfd3/download/ccl_locations_cc.csv,2022/05/17 00:00:00+00,IMAGERY,2020/10/02 00:00:00+00,NOT AVAILABLE,DAY CARE CENTER
-13635880.6496386,4548542.93569132,13184,1222233083,ABC PRE - SCHOOL,"426 33RD AVENUE, 1ST FLOOR",SAN FRANCISCO,CA,94121,NOT AVAILABLE,(415) 387-9111,CENTER BASED,OPEN,35,SAN FRANCISCO,06075,USA,37.78106,-122.4932,624410,CHILD DAY CARE CENTERS,https://data.chhs.ca.gov/dataset/bc819981-be52-4011-b3e5-b3fd09d4ea87/resource/cdf6928f-7cbe-49e8-b415-5422b357cfd3/download/ccl_locations_cc.csv,2022/05/17 00:00:00+00,IMAGERY/OTHER,2019/09/30 00:00:00+00,NOT AVAILABLE,DAY CARE CENTER
-13629646.7581542,4549830.35684622,13259,1222234106,ALTA PLAZA PRESCHOOL,2140 PIERCE STREET,SAN FRANCISCO,CA,94115,NOT AVAILABLE,(415) 928-6483,CENTER BASED,OPEN,30,SAN FRANCISCO,06075,USA,37.7902,-122.4372,624410,CHILD DAY CARE CENTERS,https://data.chhs.ca.gov/dataset/bc819981-be52-4011-b3e5-b3fd09d4ea87/resource/cdf6928f-7cbe-49e8-b415-5422b357cfd3/download/ccl_locations_cc.csv,2022/05/17 00:00:00+00,IMAGERY,2019/02/22 00:00:00+00,NOT AVAILABLE,DAY CARE CENTER
-13632285.030086,4550905.20784667,13270,1222269930,SFUSD - PRESIDIO EARLY EDUCATION SCHOOL (PS),387 MORAGA AVE,SAN FRANCISCO,CA,94129,NOT AVAILABLE,(415) 561-5822,CENTER BASED,OPEN,109,SAN FRANCISCO,06075,USA,37.79783,-122.4609,624410,CHILD DAY CARE CENTERS,https://data.chhs.ca.gov/dataset/bc819981-be52-4011-b3e5-b3fd09d4ea87/resource/cdf6928f-7cbe-49e8-b415-5422b357cfd3/download/ccl_locations_cc.csv,2022/05/17 00:00:00+00,IMAGERY/OTHER,2019/12/20 00:00:00+00,NOT AVAILABLE,DAY CARE CENTER
-13632195.9744934,4549399.32065492,13297,1222273613,TEMPLE EMANU - EL PRESCHOOL,2 LAKE STREET,SAN FRANCISCO,CA,94118,NOT AVAILABLE,(415) 751-2535,CENTER BASED,OPEN,123,SAN FRANCISCO,06075,USA,37.78714,-122.4601,624410,CHILD DAY CARE CENTERS,https://data.chhs.ca.gov/dataset/bc819981-be52-4011-b3e5-b3fd09d4ea87/resource/cdf6928f-7cbe-49e8-b415-5422b357cfd3/download/ccl_locations_cc.csv,2022/05/17 00:00:00+00,IMAGERY/OTHER,2020/05/19 00:00:00+00,NOT AVAILABLE,DAY CARE CENTER
-13634132.9336332,4543942.48066113,13340,1222258429,LITTLE STAR PRESCHOOL 'TOO',1105 QUINTARA STREET,SAN FRANCISCO,CA,94116,NOT AVAILABLE,(415) 731-7933,CENTER BASED,OPEN,104,SAN FRANCISCO,06075,USA,37.74839,-122.4775,624410,CHILD DAY CARE CENTERS,https://data.chhs.ca.gov/dataset/bc819981-be52-4011-b3e5-b3fd09d4ea87/resource/cdf6928f-7cbe-49e8-b415-5422b357cfd3/download/ccl_locations_cc.csv,2022/05/17 00:00:00+00,IMAGERY/OTHER,2020/04/02 00:00:00+00,NOT AVAILABLE,DAY CARE CENTER
-13625917.5552126,4550096.59399938,13368,1222237105,BRIGHT HORIZONS SAN FRANCISCO CALIFORNIA ST - PRESCH,555 CALIFORNIA STREET,SAN FRANCISCO,CA,94104,NOT AVAILABLE,(415) 392-7531,CENTER BASED,OPEN,12,SAN FRANCISCO,06075,USA,37.79209,-122.4037,624410,CHILD DAY CARE CENTERS,https://data.chhs.ca.gov/dataset/bc819981-be52-4011-b3e5-b3fd09d4ea87/resource/cdf6928f-7cbe-49e8-b415-5422b357cfd3/download/ccl_locations_cc.csv,2022/05/17 00:00:00+00,IMAGERY/OTHER,2020/03/26 00:00:00+00,NOT AVAILABLE,DAY CARE CENTER
-13630459.390437,4549119.01584682,13410,1222258359,"LITTLE SCHOOL, THE",1520 LYON STREET,SAN FRANCISCO,CA,94115,NOT AVAILABLE,(415) 567-0430,CENTER BASED,OPEN,125,SAN FRANCISCO,06075,USA,37.78515,-122.4445,624410,CHILD DAY CARE CENTERS,https://data.chhs.ca.gov/dataset/bc819981-be52-4011-b3e5-b3fd09d4ea87/resource/cdf6928f-7cbe-49e8-b415-5422b357cfd3/download/ccl_locations_cc.csv,2022/05/17 00:00:00+00,IMAGERY/OTHER,2020/04/02 00:00:00+00,NOT AVAILABLE,DAY CARE CENTER
-13630704.2933167,4546713.49393702,13475,1222259154,LYCEE FRANCAIS INTERNATIONAL LA PEROUSE,755/765 ASHBURY STREET,SAN FRANCISCO,CA,94117,NOT AVAILABLE,(415) 661-5232,CENTER BASED,OPEN,96,SAN FRANCISCO,06075,USA,37.76807,-122.4467,624410,"CHILD DAY CARE, BEFORE OR AFTER SCHOOL, SEPARATE FROM SCHOOLS",https://data.chhs.ca.gov/dataset/bc819981-be52-4011-b3e5-b3fd09d4ea87/resource/cdf6928f-7cbe-49e8-b415-5422b357cfd3/download/ccl_locations_cc.csv,2022/05/17 00:00:00+00,IMAGERY/OTHER,2019/11/11 00:00:00+00,NOT AVAILABLE,DAY CARE CENTER
-13628277.5284174,4546178.38312688,13511,1222240335,"CHILDREN'S DAY SCHOOL, INC.",333 DOLORES STREET,SAN FRANCISCO,CA,94110,NOT AVAILABLE,(415) 861-5432,CENTER BASED,OPEN,72,SAN FRANCISCO,06075,USA,37.76427,-122.4249,624410,CHILD DAY CARE CENTERS,https://data.chhs.ca.gov/dataset/bc819981-be52-4011-b3e5-b3fd09d4ea87/resource/cdf6928f-7cbe-49e8-b415-5422b357cfd3/download/ccl_locations_cc.csv,2022/05/17 00:00:00+00,IMAGERY,2019/02/22 00:00:00+00,NOT AVAILABLE,DAY CARE CENTER
-13625394.3536059,4544595.74258686,13540,1222269937,SFUSD - STARR KING EARLY EDUCATION SCHOOL (PS),1215 CAROLINA STREET,SAN FRANCISCO,CA,94107,NOT AVAILABLE,(415) 695-5570,CENTER BASED,OPEN,23,SAN FRANCISCO,06075,USA,37.75303,-122.399,624410,"CHILD DAY CARE, BEFORE OR AFTER SCHOOL, SEPARATE FROM SCHOOLS",https://data.chhs.ca.gov/dataset/bc819981-be52-4011-b3e5-b3fd09d4ea87/resource/cdf6928f-7cbe-49e8-b415-5422b357cfd3/download/ccl_locations_cc.csv,2022/05/17 00:00:00+00,IMAGERY/OTHER,2019/12/20 00:00:00+00,NOT AVAILABLE,DAY CARE CENTER
-13626362.8331758,4550402.28209235,13544,1222279172,WU YEE CHILDRENS SVCS. LOK YUEN CHILD DEV. PROGRAM,888 CLAY STREET,SAN FRANCISCO,CA,94108,NOT AVAILABLE,(415) 391-4979,CENTER BASED,OPEN,48,SAN FRANCISCO,06075,USA,37.79426,-122.4077,624410,"HEAD START PROGRAMS, SEPARATE FROM SCHOOLS",https://data.chhs.ca.gov/dataset/bc819981-be52-4011-b3e5-b3fd09d4ea87/resource/cdf6928f-7cbe-49e8-b415-5422b357cfd3/download/ccl_locations_cc.csv,2022/05/17 00:00:00+00,IMAGERY/OTHER,2020/05/12 00:00:00+00,NOT AVAILABLE,DAY CARE CENTER
-13626218.1178378,4544422.56787066,13555,1222248485,GOOD SAMARITAN FAMILY RESOURCE CENTER CDC,1294 POTRERO AVENUE,SAN FRANCISCO,CA,94110,NOT AVAILABLE,(415) 824-9475,CENTER BASED,OPEN,36,SAN FRANCISCO,06075,USA,37.7518,-122.4064,624410,CHILD DAY CARE CENTERS,https://data.chhs.ca.gov/dataset/bc819981-be52-4011-b3e5-b3fd09d4ea87/resource/cdf6928f-7cbe-49e8-b415-5422b357cfd3/download/ccl_locations_cc.csv,2022/05/17 00:00:00+00,IMAGERY,2019/03/11 00:00:00+00,NOT AVAILABLE,DAY CARE CENTER
-13632674.6483038,4546089.67004428,13591,1222272501,STEPPING STONES PRE - SCHOOL - INNER SUNSET,1329 - 7TH AVENUE,SAN FRANCISCO,CA,94122,NOT AVAILABLE,(415) 665-4189,CENTER BASED,OPEN,45,SAN FRANCISCO,06075,USA,37.76364,-122.4644,624410,CHILD DAY CARE CENTERS,https://data.chhs.ca.gov/dataset/bc819981-be52-4011-b3e5-b3fd09d4ea87/resource/cdf6928f-7cbe-49e8-b415-5422b357cfd3/download/ccl_locations_cc.csv,2022/05/17 00:00:00+00,IMAGERY/OTHER,2020/05/15 00:00:00+00,NOT AVAILABLE,DAY CARE CENTER
-13625973.214958,4541279.17275111,13669,1222265999,FAMILY CONNECTIONS CENTERS - PRESCHOOL,2565 SAN BRUNO AVENUE,SAN FRANCISCO,CA,94134,NOT AVAILABLE,(415) 715-6746,CENTER BASED,OPEN,18,SAN FRANCISCO,06075,USA,37.72947,-122.4042,624410,CHILD DAY CARE CENTERS,https://data.chhs.ca.gov/dataset/bc819981-be52-4011-b3e5-b3fd09d4ea87/resource/cdf6928f-7cbe-49e8-b415-5422b357cfd3/download/ccl_locations_cc.csv,2022/05/17 00:00:00+00,IMAGERY,2019/03/20 00:00:00+00,NOT AVAILABLE,DAY CARE CENTER
-13633253.5096559,4541459.33279412,13692,1222280120,"YMCA OF SF., STONESTOWN BRANCH, ST. FRANCIS",399 SAN FERNANDO WAY,SAN FRANCISCO,CA,94127,NOT AVAILABLE,(415) 452-9622,CENTER BASED,OPEN,34,SAN FRANCISCO,06075,USA,37.73075,-122.4696,624410,CHILD DAY CARE CENTERS,https://data.chhs.ca.gov/dataset/bc819981-be52-4011-b3e5-b3fd09d4ea87/resource/cdf6928f-7cbe-49e8-b415-5422b357cfd3/download/ccl_locations_cc.csv,2022/05/17 00:00:00+00,IMAGERY/OTHER,2020/05/20 00:00:00+00,NOT AVAILABLE,DAY CARE CENTER
-13633665.3917718,4548730.26388235,13709,1222252182,JEWISH FAMILY PRESCHOOL - CONGREGATION BETH SHOLOM,301 14TH AVENUE,SAN FRANCISCO,CA,94118,NOT AVAILABLE,(415) 221-8736,CENTER BASED,OPEN,76,SAN FRANCISCO,06075,USA,37.78239,-122.4733,624410,CHILD DAY CARE CENTERS,https://data.chhs.ca.gov/dataset/bc819981-be52-4011-b3e5-b3fd09d4ea87/resource/cdf6928f-7cbe-49e8-b415-5422b357cfd3/download/ccl_locations_cc.csv,2022/05/17 00:00:00+00,IMAGERY/OTHER,2019/12/19 00:00:00+00,NOT AVAILABLE,DAY CARE CENTER
-13629312.7996818,4538589.80979515,13716,1222310931,SFUSD - EXCELSIOR AT GUADALUPE (EES) PRESCHOOL,859 PRAGUE STREET,SAN FRANCISCO,CA,94112,NOT AVAILABLE,(415) 469-4753,CENTER BASED,OPEN,72,SAN FRANCISCO,06075,USA,37.71036,-122.4342,624410,"CHILD DAY CARE, BEFORE OR AFTER SCHOOL, SEPARATE FROM SCHOOLS",https://data.chhs.ca.gov/dataset/bc819981-be52-4011-b3e5-b3fd09d4ea87/resource/cdf6928f-7cbe-49e8-b415-5422b357cfd3/download/ccl_locations_cc.csv,2022/05/17 00:00:00+00,IMAGERY/OTHER,2020/03/31 00:00:00+00,NOT AVAILABLE,DAY CARE CENTER
-13632897.2872854,4545736.23336033,13726,1222257392,LITTLE ANGELS JAPANESE PRESCHOOL,1457 NINTH AVENUE,SAN FRANCISCO,CA,94122,NOT AVAILABLE,(415) 564-6123,CENTER BASED,OPEN,30,SAN FRANCISCO,06075,USA,37.76113,-122.4664,624410,CHILD DAY CARE CENTERS,https://data.chhs.ca.gov/dataset/bc819981-be52-4011-b3e5-b3fd09d4ea87/resource/cdf6928f-7cbe-49e8-b415-5422b357cfd3/download/ccl_locations_cc.csv,2022/05/17 00:00:00+00,IMAGERY/OTHER,2020/04/02 00:00:00+00,NOT AVAILABLE,DAY CARE CENTER
